,State_,City_ID,City,Lat,Long
0,AK,1,Adak,55.999722,-161.207778
1,AK,2,Akiachak,60.891854,-161.39233
2,AK,3,Akiak,60.890632,-161.199325
3,AK,4,Akutan,54.143012,-165.785368
4,AK,5,Alakanuk,62.746967,-164.60228
5,AK,6,Aleknagik,59.269688,-158.619882
6,AK,7,Allakaket,66.543197,-152.712155
7,AK,8,Ambler,67.46951,-156.455652
8,AK,9,Anaktuvuk Pass,68.11878,-151.679005
9,AK,10,Anchor Point,59.788818,-151.732933
10,AK,11,Anchorage,61.211571,-149.876077
11,AK,12,Anderson,64.300693,-149.1718
12,AK,13,Angoon,57.569832,-134.371052
13,AK,14,Aniak,61.691648,-157.758502
14,AK,15,Anvik,62.830913,-160.130441
15,AK,16,Arctic Village,68.077395,-145.423115
16,AK,17,Atka,52.199167,-174.213333
17,AK,18,Atqasuk,71.290556,-156.788611
18,AK,19,Auke Bay,58.3833,-134.6597
19,AK,20,Barrow,71.234637,-156.817409
20,AK,21,Beaver,66.33883,-147.279803
21,AK,22,Bethel,60.832389,-161.824053
22,AK,23,Bettles Field,67.100495,-151.062414
23,AK,24,Big Lake,61.5842,-149.4401
24,AK,25,Brevig Mission,65.334187,-166.478578
25,AK,26,Buckland,65.981052,-161.131676
26,AK,27,Cantwell,63.395458,-148.89735
27,AK,28,Central,65.468058,-144.74886
28,AK,29,Chalkyitsik,66.719,-143.638121
29,AK,30,Chefornak,60.153746,-164.210294
30,AK,31,Chevak,61.583982,-164.776457
31,AK,32,Chicken,64.075,-141.933333
32,AK,33,Chignik,56.301639,-158.415696
33,AK,34,Chignik Lagoon,56.251277,-158.673528
34,AK,35,Chignik Lake,56.255556,-158.7625
35,AK,36,Chitina,61.516667,-144.436667
36,AK,37,Chugiak,61.409802,-149.453736
37,AK,38,Circle,65.824542,-144.08262
38,AK,39,Clam Gulch,60.201603,-151.422628
39,AK,40,Clarks Point,58.84921,-158.451241
40,AK,41,Clear,64.418121,-149.139885
41,AK,42,Coffman Cove,55.342222,-131.646111
42,AK,43,Cold Bay,55.610952,-161.942941
43,AK,44,Cooper Landing,60.476692,-149.823514
44,AK,45,Copper Center,61.91581,-144.97793
45,AK,46,Cordova,60.102558,-147.943316
46,AK,47,Craig,55.47317,-133.117081
47,AK,48,Crooked Creek,61.818072,-158.002483
48,AK,49,Deering,66.062265,-162.711951
49,AK,50,Delta Junction,64.005426,-145.613611
50,AK,51,Denali National Park,63.516075,-149.539532
51,AK,52,Dillingham,59.059279,-158.973533
52,AK,53,Douglas,58.275597,-134.395041
53,AK,54,Dutch Harbor,53.362757,-167.510656
54,AK,55,Eagle,64.783333,-141.2
55,AK,56,Eagle River,61.311357,-149.508515
56,AK,57,Eek,60.215058,-162.032341
57,AK,58,Egegik,58.206174,-157.342202
58,AK,59,Eielson Afb,64.67352,-147.08051
59,AK,60,Ekwok,59.362792,-157.478211
60,AK,61,Elfin Cove,58.195,-136.358333
61,AK,62,Elim,64.621662,-162.260371
62,AK,63,Elmendorf Afb,61.251531,-149.812667
63,AK,64,Emmonak,62.827404,-164.131298
64,AK,65,Ester,64.846667,-148.016667
65,AK,66,Fairbanks,64.840238,-147.710431
66,AK,67,False Pass,54.841028,-163.436845
67,AK,68,Fort Greely,64.036667,-145.733333
68,AK,69,Fort Richardson,61.275256,-149.675454
69,AK,70,Fort Wainwright,64.828303,-147.655673
70,AK,71,Fort Yukon,66.520744,-145.306439
71,AK,72,Gakona,62.654744,-143.568393
72,AK,73,Galena,64.760784,-156.797701
73,AK,74,Gambell,63.776555,-171.701685
74,AK,75,Girdwood,60.9425,-149.166389
75,AK,76,Glennallen,62.103895,-145.661684
76,AK,77,Goodnews Bay,59.085008,-161.587146
77,AK,78,Grayling,63.372013,-159.404907
78,AK,79,Gustavus,58.42835,-135.761542
79,AK,80,Haines,59.251886,-135.542032
80,AK,81,Healy,63.917123,-149.011128
81,AK,82,Holy Cross,62.192584,-159.825092
82,AK,83,Homer,59.665495,-151.462644
83,AK,84,Hoonah,58.032237,-135.558435
84,AK,85,Hooper Bay,61.537157,-165.891045
85,AK,86,Hope,60.92,-149.641667
86,AK,87,Houston,61.633611,-149.841111
87,AK,88,Hughes,66.038246,-154.26443
88,AK,89,Huslia,65.689918,-156.291976
89,AK,90,Hydaburg,55.137406,-132.633175
90,AK,91,Hyder,55.925867,-130.124915
91,AK,92,Iliamna,59.564836,-155.462556
92,AK,93,Indian,60.9804,-149.4917
93,AK,94,Juneau,58.362767,-134.529429
94,AK,95,Kake,56.975833,-133.947222
95,AK,96,Kaktovik,70.042889,-143.631329
96,AK,97,Kalskag,61.541006,-160.3261
97,AK,98,Kaltag,64.330452,-158.724251
98,AK,99,Karluk,57.57,-154.458333
99,AK,100,Kasigluk,60.895556,-162.520556
100,AK,101,Kasilof,60.316365,-151.28958
101,AK,102,Kenai,60.614467,-151.254556
102,AK,103,Ketchikan,55.372028,-131.683175
103,AK,104,Kiana,67.18026,-158.152204
104,AK,105,King Cove,55.062848,-162.305561
105,AK,106,King Salmon,58.724264,-156.641603
106,AK,107,Kipnuk,59.923204,-164.101013
107,AK,108,Kivalina,67.665859,-163.733617
108,AK,109,Klawock,55.552611,-133.055503
109,AK,110,Kobuk,66.912253,-157.066864
110,AK,111,Kodiak,57.781967,-152.500169
111,AK,112,Kongiganak,60.9888,-149.4116
112,AK,113,Kotlik,63.029471,-163.554153
113,AK,114,Kotzebue,66.846459,-162.126493
114,AK,115,Koyuk,64.931668,-161.149957
115,AK,116,Koyukuk,64.883333,-157.7
116,AK,117,Kwethluk,60.771814,-161.38849
117,AK,118,Kwigillingok,59.881022,-162.984938
118,AK,119,Lake Minchumina,63.903884,-152.430081
119,AK,120,Larsen Bay,57.538333,-153.98
120,AK,121,Levelock,59.371395,-154.976815
121,AK,122,Lower Kalskag,61.51377,-160.359966
122,AK,123,Manley Hot Springs,65.02058,-150.573267
123,AK,124,Manokotak,59.009559,-158.989699
124,AK,125,Marshall,61.837087,-161.7394
125,AK,126,Mc Grath,62.967153,-155.585153
126,AK,127,Mekoryuk,60.365679,-166.283583
127,AK,128,Metlakatla,55.121491,-131.579001
128,AK,129,Meyers Chuck,55.741667,-132.253333
129,AK,130,Minto,65.058399,-149.691186
130,AK,131,Moose Pass,60.85852,-149.255911
131,AK,132,Mountain Village,62.158913,-163.883822
132,AK,133,Naknek,58.885699,-156.705405
133,AK,134,Napakiak,60.663758,-161.738144
134,AK,135,Nenana,64.557656,-149.086744
135,AK,136,New Stuyahok,59.593533,-157.297205
136,AK,137,Nightmute,60.479444,-164.723889
137,AK,138,Nikiski,60.690278,-151.288889
138,AK,139,Nikolai,63.001603,-154.381247
139,AK,140,Nikolski,52.988337,-168.788427
140,AK,141,Ninilchik,60.010833,-151.639604
141,AK,142,Noatak,66.97553,-160.509453
142,AK,143,Nome,64.505775,-165.310667
143,AK,144,Nondalton,60.030837,-154.731675
144,AK,145,Noorvik,66.836353,-161.044132
145,AK,146,North Pole,64.78049,-147.369353
146,AK,147,Northway,62.964167,-141.908611
147,AK,148,Nuiqsut,70.192737,-150.997119
148,AK,149,Nulato,64.778024,-157.991353
149,AK,150,Nunam Iqua,62.509167,-164.453333
150,AK,151,Nunapitchuk,60.896944,-162.459444
151,AK,152,Old Harbor,57.202778,-153.303889
152,AK,153,Ouzinkie,57.925,-152.491667
153,AK,154,Palmer,61.613814,-149.065323
154,AK,155,Pedro Bay,59.92238,-153.821856
155,AK,156,Pelican,57.960833,-136.2275
156,AK,157,Perryville,55.945289,-159.259333
157,AK,158,Petersburg,56.827134,-133.160683
158,AK,159,Pilot Point,57.595193,-157.449272
159,AK,160,Pilot Station,61.946159,-162.874716
160,AK,161,Platinum,58.63364,-162.043201
161,AK,162,Point Baker,56.307858,-133.376372
162,AK,163,Point Hope,68.312058,-166.72618
163,AK,164,Point Lay,69.705626,-162.906148
164,AK,165,Port Alexander,57.05,-135.333333
165,AK,166,Port Alsworth,60.636416,-154.433803
166,AK,167,Port Heiden,56.964333,-158.566367
167,AK,168,Port Lions,57.866667,-152.883333
168,AK,169,Prudhoe Bay,70.070057,-148.559636
169,AK,170,Quinhagak,59.738057,-161.874938
170,AK,171,Rampart,65.383627,-150.011201
171,AK,172,Red Devil,61.735389,-157.195969
172,AK,173,Ruby,64.720062,-155.503872
173,AK,174,Russian Mission,61.591302,-161.558413
174,AK,175,Saint George Island,56.60324,-169.547257
175,AK,176,Saint Marys,62.054106,-163.205263
176,AK,177,Saint Michael,63.47759,-162.109141
177,AK,178,Saint Paul Island,57.178697,-170.293408
178,AK,179,Salcha,64.50905,-146.952974
179,AK,180,Sand Point,55.319236,-160.491435
180,AK,181,Savoonga,63.679737,-170.470908
181,AK,182,Scammon Bay,61.845019,-165.581945
182,AK,183,Selawik,65.713537,-158.534287
183,AK,184,Seldovia,59.436667,-151.708333
184,AK,185,Seward,60.132874,-149.39849
185,AK,186,Shageluk,62.661092,-159.52816
186,AK,187,Shaktoolik,64.375498,-161.174589
187,AK,188,Shishmaref,66.230562,-166.137276
188,AK,189,Shungnak,66.958141,-157.613496
189,AK,190,Sitka,57.051436,-135.316569
190,AK,191,Skagway,59.468471,-135.301794
191,AK,192,Skwentna,61.958333,-151.181667
192,AK,193,Sleetmute,61.634555,-157.118284
193,AK,194,Soldotna,60.481778,-151.13582
194,AK,195,South Naknek,58.736221,-156.850289
195,AK,196,Stebbins,63.478468,-162.227355
196,AK,197,Sterling,60.520373,-150.849792
197,AK,198,Stevens Village,65.995894,-149.118286
198,AK,199,Sutton,61.796667,-148.462778
199,AK,200,Takotna,62.948889,-155.566389
200,AK,201,Talkeetna,62.260516,-150.110097
201,AK,202,Tanacross,63.385278,-143.346389
202,AK,203,Tanana,65.156483,-152.103747
203,AK,204,Tatitlek,60.864722,-146.678611
204,AK,205,Teller,65.240164,-166.3833
205,AK,206,Tenakee Springs,57.78,-135.216667
206,AK,207,Thorne Bay,55.66086,-132.513815
207,AK,208,Togiak,59.066667,-160.4
208,AK,209,Tok,63.333333,-142.983333
209,AK,210,Toksook Bay,60.537,-165.097
210,AK,211,Trapper Creek,61.441361,-150.284455
211,AK,212,Tuluksak,61.108848,-160.938924
212,AK,213,Tuntutuliak,60.8438,-161.6372
213,AK,214,Tununak,60.539322,-165.097464
214,AK,215,Two Rivers,64.871944,-147.038056
215,AK,216,Tyonek,61.117929,-151.348495
216,AK,217,Unalakleet,63.883478,-160.788365
217,AK,218,Unalaska,53.887114,-166.519855
218,AK,219,Valdez,60.895044,-146.195628
219,AK,220,Venetie,67.010446,-146.413723
220,AK,221,Wainwright,70.620064,-160.012532
221,AK,222,Wales,65.688212,-168.520521
222,AK,223,Ward Cove,55.408333,-131.725
223,AK,224,Wasilla,61.5814,-149.4394
224,AK,225,White Mountain,64.702791,-163.42185
225,AK,226,Whittier,60.775,-148.683333
226,AK,227,Willow,61.771511,-150.188891
227,AK,228,Wrangell,56.433524,-132.352918
228,AK,229,Yakutat,59.620211,-139.778858
229,AL,230,Abbeville,31.575479,-85.279044
230,AL,231,Abernant,33.290278,-87.198056
231,AL,232,Adamsville,33.588437,-86.959727
232,AL,233,Addison,34.205571,-87.194766
233,AL,234,Adger,33.434277,-87.167455
234,AL,235,Akron,32.872354,-87.708558
235,AL,236,Alabaster,33.236868,-86.812861
236,AL,237,Alberta,32.144889,-87.342503
237,AL,238,Albertville,34.273859,-86.206447
238,AL,239,Alexander City,32.941445,-85.951086
239,AL,240,Alexandria,33.780785,-85.892447
240,AL,241,Aliceville,33.122813,-88.166689
241,AL,242,Allgood,33.911944,-86.509444
242,AL,243,Alma,31.463889,-87.753889
243,AL,244,Alpine,33.331165,-86.208934
244,AL,245,Alton,33.579167,-86.6375
245,AL,246,Altoona,34.042916,-86.350879
246,AL,247,Andalusia,31.297142,-86.490468
247,AL,248,Anderson,34.951777,-87.272327
248,AL,249,Annemanie,32.052778,-87.570833
249,AL,250,Anniston,33.653896,-85.838152
250,AL,251,Arab,34.328339,-86.489638
251,AL,252,Ardmore,34.980447,-86.834612
252,AL,253,Ariton,31.582996,-85.707716
253,AL,254,Arley,34.063234,-87.182761
254,AL,255,Arlington,32.066784,-87.559691
255,AL,256,Ashford,31.1888,-85.253488
256,AL,257,Ashland,33.247363,-85.828976
257,AL,258,Ashville,33.837366,-86.255167
258,AL,259,Athens,34.803604,-86.970733
259,AL,260,Atmore,31.057245,-87.487347
260,AL,261,Attalla,34.029597,-86.096717
261,AL,262,Auburn,32.602043,-85.489001
262,AL,263,Auburn University,32.601,-85.4882
263,AL,264,Autaugaville,32.462462,-86.714938
264,AL,265,Axis,31.006817,-88.04274
265,AL,266,Baileyton,34.268298,-86.621299
266,AL,267,Banks,31.836792,-85.799844
267,AL,268,Bankston,33.70083,-87.68965
268,AL,269,Bay Minette,30.86354,-87.76444
269,AL,270,Bayou La Batre,30.407983,-88.250697
270,AL,271,Bear Creek,34.213469,-87.686083
271,AL,272,Beatrice,31.727324,-87.171912
272,AL,273,Beaverton,33.942877,-88.01567
273,AL,274,Belk,33.6475,-87.931389
274,AL,275,Bellamy,32.448889,-88.133611
275,AL,276,Belle Mina,34.656667,-86.879167
276,AL,277,Bellwood,31.173056,-85.793333
277,AL,278,Berry,33.694485,-87.622563
278,AL,279,Bessemer,33.409002,-86.947547
279,AL,280,Billingsley,32.610578,-86.716301
280,AL,281,Birmingham,33.519,-86.8014
281,AL,282,Birmingham,33.401559,-86.705511
282,AL,283,Black,31.01318,-85.745634
283,AL,284,Blountsville,34.092937,-86.568628
284,AL,285,Boaz,34.173889,-86.121111
285,AL,286,Boaz,34.173686,-86.148003
286,AL,287,Boligee,32.774646,-88.026652
287,AL,288,Bon Air,33.263611,-86.335556
288,AL,289,Bon Secour,30.328883,-87.721355
289,AL,290,Booth,32.500278,-86.571944
290,AL,291,Boykin,32.077778,-87.281389
291,AL,292,Brantley,31.570963,-86.274343
292,AL,293,Bremen,33.973664,-87.004281
293,AL,294,Brent,32.93567,-87.211387
294,AL,295,Brewton,31.118926,-87.067325
295,AL,296,Bridgeport,34.944638,-85.727681
296,AL,297,Brierfield,33.042747,-86.951672
297,AL,298,Brilliant,34.037702,-87.756315
298,AL,299,Brooklyn,31.2625,-86.771111
299,AL,300,Brookside,33.637778,-86.916667
300,AL,301,Brookwood,33.277523,-87.309025
301,AL,302,Brownsboro,34.716733,-86.468703
302,AL,303,Brundidge,31.701324,-85.817668
303,AL,304,Bryant,34.945026,-85.632445
304,AL,305,Bucks,31.010278,-88.024167
305,AL,306,Buhl,33.249448,-87.718886
306,AL,307,Burnt Corn,31.458009,-86.925771
307,AL,308,Burnwell,33.707778,-87.0875
308,AL,309,Butler,32.082906,-88.206391
309,AL,310,Bynum,33.613056,-85.961111
310,AL,311,Calera,33.1098,-86.755987
311,AL,312,Calvert,31.160556,-88.031111
312,AL,313,Camden,32.004732,-87.295049
313,AL,314,Camp Hill,32.782749,-85.64738
314,AL,315,Campbell,31.963512,-88.006072
315,AL,316,Capshaw,34.773056,-86.792778
316,AL,317,Carbon Hill,33.909252,-87.540328
317,AL,318,Cardiff,33.645556,-86.933611
318,AL,319,Carlton,31.322449,-87.837793
319,AL,320,Carrollton,33.248506,-88.132122
320,AL,321,Castleberry,31.326113,-87.026754
321,AL,322,Catherine,32.182,-87.483623
322,AL,323,Cecil,32.300891,-86.011241
323,AL,324,Cedar Bluff,34.241662,-85.602567
324,AL,325,Centre,34.111592,-85.609229
325,AL,326,Centreville,32.950324,-87.11924
326,AL,327,Chancellor,31.173379,-85.910897
327,AL,328,Chapman,31.671111,-86.712222
328,AL,329,Chatom,31.487638,-88.269887
329,AL,330,Chelsea,33.371582,-86.614132
330,AL,331,Cherokee,34.744188,-87.972445
331,AL,332,Childersburg,33.266928,-86.337622
332,AL,333,Choccolocco,33.659167,-85.703611
333,AL,334,Chunchula,30.991178,-88.131126
334,AL,335,Citronelle,31.042533,-88.254949
335,AL,336,Clanton,32.835532,-86.642472
336,AL,337,Clay,33.7025,-86.599722
337,AL,338,Clayton,31.887413,-85.450932
338,AL,339,Cleveland,33.992106,-86.559355
339,AL,340,Clinton,32.913611,-87.9925
340,AL,341,Clio,31.68521,-85.590419
341,AL,342,Clopton,31.602843,-85.482308
342,AL,343,Cloverdale,34.938611,-87.771389
343,AL,344,Coaling,33.158889,-87.340833
344,AL,345,Coden,30.418834,-88.168276
345,AL,346,Coffee Springs,31.138758,-85.918224
346,AL,347,Coffeeville,31.78428,-88.071542
347,AL,348,Coker,33.252612,-87.636528
348,AL,349,Collinsville,34.267957,-85.861969
349,AL,350,Columbia,31.335235,-85.145488
350,AL,351,Columbiana,33.176964,-86.616145
351,AL,352,Cook Springs,33.589722,-86.361944
352,AL,353,Coosada,32.496667,-86.331667
353,AL,354,Cordova,33.768033,-87.18406
354,AL,355,Cottondale,33.176667,-87.387051
355,AL,356,Cottonton,32.146667,-85.073889
356,AL,357,Cottonwood,31.098934,-85.375665
357,AL,358,Courtland,34.671866,-87.314255
358,AL,359,Cowarts,31.2,-85.304722
359,AL,360,Coy,31.888851,-87.392558
360,AL,361,Cragford,33.217148,-85.710797
361,AL,362,Crane Hill,34.082117,-87.048395
362,AL,363,Creola,30.901267,-88.017414
363,AL,364,Cropwell,33.506448,-86.280026
364,AL,365,Crossville,34.258784,-86.030575
365,AL,366,Cuba,32.410973,-88.361083
366,AL,367,Cullman,34.176146,-86.829777
367,AL,368,Cusseta,32.803194,-85.215791
368,AL,369,Dadeville,32.82239,-85.770395
369,AL,370,Daleville,31.281091,-85.730473
370,AL,371,Danville,34.452189,-87.053187
371,AL,372,Daphne,30.61972,-87.889522
372,AL,373,Dauphin Island,30.252057,-88.109644
373,AL,374,Daviston,33.033471,-85.753831
374,AL,375,Dawson,34.356838,-85.929161
375,AL,376,De Armanville,33.626389,-85.751389
376,AL,377,Deatsville,32.613405,-86.338211
377,AL,378,Decatur,34.589599,-86.98868
378,AL,379,Deer Park,31.184892,-88.32731
379,AL,380,Delmar,34.17,-87.605833
380,AL,381,Delta,33.457303,-85.679279
381,AL,382,Demopolis,32.490792,-87.839669
382,AL,383,Detroit,34.010874,-88.16063
383,AL,384,Dickinson,31.717167,-87.656929
384,AL,385,Dixons Mills,32.067209,-87.745356
385,AL,386,Docena,33.559444,-86.931111
386,AL,387,Dolomite,33.465424,-86.956435
387,AL,388,Dora,33.734947,-87.040148
388,AL,389,Dothan,31.202888,-85.418036
389,AL,390,Double Springs,34.138682,-87.397431
390,AL,391,Douglas,34.173611,-86.323611
391,AL,392,Dozier,31.506614,-86.366315
392,AL,393,Duncanville,33.082815,-87.494977
393,AL,394,Dutton,34.604558,-85.906729
394,AL,395,East Tallassee,32.607222,-85.808056
395,AL,396,Eastaboga,33.603132,-85.96075
396,AL,397,Echola,33.316559,-87.807202
397,AL,398,Eclectic,32.65419,-86.031614
398,AL,399,Edwardsville,33.707222,-85.509167
399,AL,400,Eight Mile,30.795074,-88.182311
400,AL,401,Elba,31.41373,-86.077728
401,AL,402,Elberta,30.394239,-87.58896
402,AL,403,Eldridge,33.931546,-87.619397
403,AL,404,Elkmont,34.915241,-86.910452
404,AL,405,Elmore,32.545378,-86.316134
405,AL,406,Elrod,33.343678,-87.801429
406,AL,407,Emelle,32.754963,-88.305747
407,AL,408,Empire,33.825589,-87.016139
408,AL,409,Enterprise,31.340789,-85.842111
409,AL,410,Epes,32.763371,-88.161443
410,AL,411,Equality,32.813908,-86.105064
411,AL,412,Estillfork,34.913017,-86.171571
412,AL,413,Ethelsville,33.386816,-88.221987
413,AL,414,Eufaula,31.905063,-85.165605
414,AL,415,Eutaw,32.888871,-87.930297
415,AL,416,Eva,34.347778,-86.704427
416,AL,417,Excel,31.427778,-87.341389
417,AL,418,Fackler,34.82589,-85.984648
418,AL,419,Fairfield,33.473494,-86.918262
419,AL,420,Fairhope,30.50116,-87.883546
420,AL,421,Falkville,34.347653,-86.913086
421,AL,422,Faunsdale,32.423259,-87.618079
422,AL,423,Fayette,33.697397,-87.834647
423,AL,424,Fitzpatrick,32.151607,-85.888329
424,AL,425,Five Points,33.042408,-85.324264
425,AL,426,Flat Rock,34.807598,-85.708372
426,AL,427,Flomaton,31.040233,-87.266365
427,AL,428,Florala,31.017194,-86.338528
428,AL,429,Florence,34.830547,-87.655985
429,AL,430,Foley,30.400664,-87.685737
430,AL,431,Forest Home,31.85318,-86.786377
431,AL,432,Forkland,32.644661,-87.881676
432,AL,433,Fort Davis,32.28945,-85.700688
433,AL,434,Fort Deposit,31.995979,-86.576142
434,AL,435,Fort Mitchell,32.341389,-85.021667
435,AL,436,Fort Payne,34.436792,-85.712394
436,AL,437,Fort Rucker,31.348011,-85.721374
437,AL,438,Fosters,33.135859,-87.735688
438,AL,439,Franklin,31.723815,-87.441237
439,AL,440,Frankville,31.64684,-88.133185
440,AL,441,Frisco City,31.423478,-87.381744
441,AL,442,Fruitdale,31.348843,-88.376597
442,AL,443,Fruithurst,33.771732,-85.43814
443,AL,444,Fulton,31.790947,-87.708065
444,AL,445,Fultondale,33.611283,-86.813614
445,AL,446,Furman,32.006667,-86.966944
446,AL,447,Fyffe,34.437284,-85.928849
447,AL,448,Gadsden,33.997248,-86.010279
448,AL,449,Gainestown,31.425822,-87.682176
449,AL,450,Gainesville,32.908364,-88.271558
450,AL,451,Gallant,33.997586,-86.234606
451,AL,452,Gallion,32.529771,-87.698542
452,AL,453,Gantt,31.416909,-86.419836
453,AL,454,Garden City,34.014444,-86.746944
454,AL,455,Gardendale,33.71891,-86.822481
455,AL,456,Gaylesville,34.357324,-85.558893
456,AL,457,Geneva,31.041445,-85.884748
457,AL,458,Georgiana,31.628662,-86.733965
458,AL,459,Geraldine,34.343864,-86.040393
459,AL,460,Gilbertown,31.866602,-88.326514
460,AL,461,Glen Allen,33.899444,-87.730278
461,AL,462,Glenwood,31.664143,-86.170972
462,AL,463,Goodsprings,33.668889,-87.231667
463,AL,464,Goodwater,33.074642,-86.078149
464,AL,465,Goodway,31.336667,-87.425833
465,AL,466,Gordo,33.346917,-87.900504
466,AL,467,Gordon,31.10019,-85.123412
467,AL,468,Goshen,31.82497,-86.104851
468,AL,469,Grady,32.019397,-86.129246
469,AL,470,Graham,33.462976,-85.334034
470,AL,471,Grand Bay,30.498288,-88.32825
471,AL,472,Grant,34.495902,-86.259041
472,AL,473,Graysville,33.63356,-86.948221
473,AL,474,Green Pond,33.225,-87.126389
474,AL,475,Greensboro,32.716721,-87.590494
475,AL,476,Greenville,31.810036,-86.622919
476,AL,477,Grove Hill,31.675502,-87.763571
477,AL,478,Groveoak,34.435874,-86.040023
478,AL,479,Guin,33.967624,-87.90238
479,AL,480,Gulf Shores,30.268954,-87.712795
480,AL,481,Guntersville,34.32193,-86.305463
481,AL,482,Gurley,34.713964,-86.394028
482,AL,483,Hackleburg,34.267803,-87.860762
483,AL,484,Haleyville,34.231423,-87.593811
484,AL,485,Hamilton,34.153413,-88.008521
485,AL,486,Hanceville,34.051569,-86.784844
486,AL,487,Hardaway,32.312939,-85.883837
487,AL,488,Harpersville,33.36746,-86.429441
488,AL,489,Hartford,31.08598,-85.719204
489,AL,490,Hartselle,34.448206,-86.924235
490,AL,491,Harvest,34.82732,-86.749929
491,AL,492,Hatchechubbee,32.284531,-85.302882
492,AL,493,Hayden,33.885806,-86.81767
493,AL,494,Hayneville,32.195707,-86.654994
494,AL,495,Hazel Green,34.949627,-86.593484
495,AL,496,Headland,31.353406,-85.332277
496,AL,497,Heflin,33.611515,-85.588471
497,AL,498,Helena,33.316978,-86.813786
498,AL,499,Henagar,34.618604,-85.727381
499,AL,500,Higdon,34.873247,-85.622507
500,AL,501,Highland Home,31.928292,-86.297111
501,AL,502,Hillsboro,34.64763,-87.180379
502,AL,503,Hodges,34.341664,-87.959023
503,AL,504,Hollins,33.1175,-86.144444
504,AL,505,Holly Pond,34.190085,-86.617441
505,AL,506,Hollytree,34.798979,-86.233627
506,AL,507,Hollywood,34.730428,-85.953173
507,AL,508,Holy Trinity,32.222222,-85.005278
508,AL,509,Honoraville,31.878397,-86.398064
509,AL,510,Hope Hull,32.224256,-86.393189
510,AL,511,Horton,34.190033,-86.317318
511,AL,512,Houston,34.118042,-87.26183
512,AL,513,Huntsville,34.726866,-86.567318
513,AL,514,Hurtsboro,32.245429,-85.395903
514,AL,515,Huxford,31.22,-87.461944
515,AL,516,Ider,34.735059,-85.641577
516,AL,517,Irvington,30.480241,-88.239563
517,AL,518,Jachin,32.244174,-88.233356
518,AL,519,Jack,31.552392,-86.043083
519,AL,520,Jackson,31.513098,-87.867192
520,AL,521,Jacksons Gap,32.879698,-85.848662
521,AL,522,Jacksonville,33.830966,-85.77518
522,AL,523,Jasper,33.871672,-87.249144
523,AL,524,Jefferson,32.386667,-87.898056
524,AL,525,Jemison,32.980539,-86.718052
525,AL,526,Jones,32.608515,-86.889266
526,AL,527,Joppa,34.283739,-86.551939
527,AL,528,Kansas,33.901667,-87.551944
528,AL,529,Kellerman,33.340556,-87.304722
529,AL,530,Kellyton,32.979068,-86.048397
530,AL,531,Kennedy,33.574964,-88.05172
531,AL,532,Kent,32.618889,-85.948611
532,AL,533,Killen,34.901632,-87.508185
533,AL,534,Kimberly,33.768355,-86.808417
534,AL,535,Kinston,31.262118,-86.069532
535,AL,536,Knoxville,32.982423,-87.791855
536,AL,537,Laceys Spring,34.499647,-86.612869
537,AL,538,Lafayette,32.925237,-85.442563
538,AL,539,Lanett,32.861609,-85.21608
539,AL,540,Langston,34.497831,-86.10563
540,AL,541,Lapine,31.985423,-86.278534
541,AL,542,Lawley,32.864558,-86.956708
542,AL,543,Leeds,33.528333,-86.574824
543,AL,544,Leesburg,34.191083,-85.77051
544,AL,545,Leighton,34.710982,-87.522133
545,AL,546,Lenox,31.327261,-87.19671
546,AL,547,Leroy,31.491021,-87.968672
547,AL,548,Lester,34.918364,-87.143396
548,AL,549,Letohatchee,32.086199,-86.488013
549,AL,550,Lexington,34.955924,-87.393519
550,AL,551,Lillian,30.39724,-87.474452
551,AL,552,Lincoln,33.605913,-86.111152
552,AL,553,Linden,32.305343,-87.795358
553,AL,554,Lineville,33.328613,-85.734609
554,AL,555,Lisman,32.217722,-88.323419
555,AL,556,Little River,31.22459,-87.754796
556,AL,557,Livingston,32.588509,-88.173592
557,AL,558,Loachapoka,32.604167,-85.593333
558,AL,559,Lockhart,31.010278,-86.349722
559,AL,560,Locust Fork,33.9075,-86.615278
560,AL,561,Logan,34.184079,-87.038115
561,AL,562,Louisville,31.794262,-85.558062
562,AL,563,Lower Peach Tree,31.850365,-87.568224
563,AL,564,Lowndesboro,32.300292,-86.609868
564,AL,565,Loxley,30.617964,-87.75624
565,AL,566,Luverne,31.70739,-86.256601
566,AL,567,Lynn,34.052984,-87.539814
567,AL,568,Madison,34.6578,-86.8056
568,AL,569,Madison,34.7837,-86.7486
569,AL,570,Magnolia,32.141931,-87.699815
570,AL,571,Magnolia Springs,30.394497,-87.785781
571,AL,572,Malcolm,31.191111,-88.0075
572,AL,573,Malvern,31.157528,-85.522327
573,AL,574,Maplesville,32.804507,-86.871704
574,AL,575,Marbury,32.639373,-86.510138
575,AL,576,Margaret,33.686111,-86.475
576,AL,577,Marion,32.646301,-87.331437
577,AL,578,Marion Junction,32.426589,-87.270181
578,AL,579,Mathews,32.128288,-86.041262
579,AL,580,Maylene,33.231694,-86.872745
580,AL,581,Mc Calla,33.284546,-87.102379
581,AL,582,Mc Intosh,31.236108,-88.051102
582,AL,583,Mc Kenzie,31.54495,-86.735615
583,AL,584,Mc Shan,33.381667,-88.143333
584,AL,585,Mc Williams,31.845556,-87.088333
585,AL,586,Megargel,31.379722,-87.428333
586,AL,587,Melvin,31.930278,-88.458889
587,AL,588,Mentone,34.587236,-85.577728
588,AL,589,Meridianville,34.861779,-86.578879
589,AL,590,Mexia,31.506944,-87.388333
590,AL,591,Midland City,31.36716,-85.513033
591,AL,592,Midway,32.09552,-85.531523
592,AL,593,Millbrook,32.499485,-86.364125
593,AL,594,Millerville,33.158959,-85.969001
594,AL,595,Millport,33.54013,-88.200003
595,AL,596,Millry,31.626871,-88.355872
596,AL,597,Minter,32.095387,-86.92497
597,AL,598,Mobile,30.6959,-88.0434
598,AL,599,Monroeville,31.51533,-87.340993
599,AL,600,Montevallo,33.124765,-86.862228
600,AL,601,Montgomery,32.3743,-86.3118
601,AL,602,Montrose,30.565556,-87.901667
602,AL,603,Moody,33.584132,-86.51557
603,AL,604,Mooresville,34.628333,-86.880278
604,AL,605,Morris,33.739172,-86.772551
605,AL,606,Morvin,31.967305,-87.972897
606,AL,607,Moulton,34.505836,-87.222385
607,AL,608,Moundville,32.978853,-87.615134
608,AL,609,Mount Hope,34.462969,-87.451453
609,AL,610,Mount Meigs,32.3625,-86.101944
610,AL,611,Mount Olive,33.67678,-86.87171
611,AL,612,Mount Vernon,31.097375,-88.035044
612,AL,613,Mulga,33.540696,-87.043998
613,AL,614,Munford,33.540987,-85.936322
614,AL,615,Muscadine,33.752913,-85.378907
615,AL,616,Muscle Shoals,34.756136,-87.630443
616,AL,617,Myrtlewood,32.250278,-87.949722
617,AL,618,Nanafalia,32.112778,-87.988056
618,AL,619,Natural Bridge,34.093333,-87.601944
619,AL,620,Nauvoo,33.929859,-87.432449
620,AL,621,Needham,32.012165,-88.345798
621,AL,622,New Brockton,31.36898,-85.940386
622,AL,623,New Castle,33.648889,-86.768611
623,AL,624,New Hope,34.549445,-86.3961
624,AL,625,New Market,34.899991,-86.448742
625,AL,626,Newbern,32.551465,-87.561472
626,AL,627,Newton,31.331064,-85.599229
627,AL,628,Newville,31.440295,-85.328741
628,AL,629,Normal,34.788889,-86.571944
629,AL,630,Northport,33.2605,-87.5872
630,AL,631,Notasulga,32.543727,-85.68707
631,AL,632,Oak Hill,31.925,-87.0825
632,AL,633,Oakman,33.700174,-87.368574
633,AL,634,Odenville,33.675611,-86.408952
634,AL,635,Ohatchee,33.778779,-86.025357
635,AL,636,Oneonta,33.925858,-86.474118
636,AL,637,Opelika,32.627771,-85.358629
637,AL,638,Opp,31.279861,-86.257105
638,AL,639,Orange Beach,30.290596,-87.555888
639,AL,640,Orrville,32.294859,-87.221368
640,AL,641,Owens Cross Roads,34.612859,-86.466577
641,AL,642,Oxford,33.596829,-85.83347
642,AL,643,Ozark,31.439069,-85.643629
643,AL,644,Paint Rock,34.667122,-86.332562
644,AL,645,Palmerdale,33.738611,-86.646111
645,AL,646,Panola,32.950556,-88.268889
646,AL,647,Pansey,31.131778,-85.238549
647,AL,648,Parrish,33.721307,-87.265773
648,AL,649,Pelham,33.31046,-86.806176
649,AL,650,Pell City,33.597889,-86.343151
650,AL,651,Pennington,32.226245,-88.0931
651,AL,652,Perdido,30.98058,-87.628374
652,AL,653,Perdue Hill,31.513889,-87.493333
653,AL,654,Perote,32.003459,-85.74773
654,AL,655,Peterman,31.589953,-87.259984
655,AL,656,Peterson,33.2325,-87.423611
656,AL,657,Petrey,31.848611,-86.207778
657,AL,658,Phenix City,32.484,-85.0911
658,AL,659,Phenix City,32.407816,-85.095082
659,AL,660,Phil Campbell,34.347018,-87.715431
660,AL,661,Piedmont,33.838946,-85.645997
661,AL,662,Pike Road,32.335705,-86.09589
662,AL,663,Pinckard,31.311389,-85.553056
663,AL,664,Pine Apple,31.926522,-87.004667
664,AL,665,Pine Hill,31.973546,-87.577086
665,AL,666,Pine Level,32.067778,-86.059722
666,AL,667,Pinson,33.708131,-86.656542
667,AL,668,Pisgah,34.688601,-85.803044
668,AL,669,Pittsview,32.173346,-85.131248
669,AL,670,Plantersville,32.617608,-86.947531
670,AL,671,Pleasant Grove,33.488336,-86.976586
671,AL,672,Point Clear,30.473889,-87.919167
672,AL,673,Prattville,32.478695,-86.42997
673,AL,674,Princeton,34.840217,-86.250068
674,AL,675,Quinton,33.656065,-87.10066
675,AL,676,Ragland,33.736677,-86.1619
676,AL,677,Rainsville,34.498884,-85.844605
677,AL,678,Ralph,33.062868,-87.744984
678,AL,679,Ramer,32.067745,-86.246329
679,AL,680,Ranburne,33.561627,-85.378604
680,AL,681,Randolph,32.888834,-86.90701
681,AL,682,Range,31.30169,-87.319739
682,AL,683,Red Bay,34.451259,-88.112914
683,AL,684,Red Level,31.439931,-86.61209
684,AL,685,Reform,33.395945,-88.020277
685,AL,686,Remlap,33.846204,-86.641662
686,AL,687,Repton,31.425569,-87.172039
687,AL,688,River Falls,31.352778,-86.539167
688,AL,689,Riverside,33.608832,-86.198341
689,AL,690,Roanoke,33.156443,-85.357854
690,AL,691,Robertsdale,30.561608,-87.637268
691,AL,692,Rockford,32.877957,-86.240006
692,AL,693,Rogersville,34.849544,-87.323671
693,AL,694,Russellville,34.506568,-87.725726
694,AL,695,Rutledge,31.755867,-86.348464
695,AL,696,Ryland,34.769722,-86.480833
696,AL,697,Safford,32.300242,-87.369345
697,AL,698,Saginaw,33.216111,-86.791944
698,AL,699,Saint Elmo,30.503333,-88.254167
699,AL,700,Saint Stephens,31.533028,-88.052094
700,AL,701,Salem,32.621157,-85.183966
701,AL,702,Samantha,33.422222,-87.605278
702,AL,703,Samson,31.104918,-86.067416
703,AL,704,Saraland,30.833197,-88.093387
704,AL,705,Sardis,32.284358,-86.991959
705,AL,706,Satsuma,30.851628,-88.053312
706,AL,707,Sawyerville,32.757796,-87.740201
707,AL,708,Sayre,33.712222,-86.974444
708,AL,709,Scottsboro,34.67227,-86.051336
709,AL,710,Seale,32.305339,-85.167733
710,AL,711,Section,34.543275,-85.994002
711,AL,712,Selma,32.419719,-87.024527
712,AL,713,Seminole,30.504806,-87.465938
713,AL,714,Semmes,30.754408,-88.266705
714,AL,715,Shannon,33.405278,-86.871944
715,AL,716,Sheffield,34.757829,-87.697057
716,AL,717,Shelby,33.078483,-86.553606
717,AL,718,Shorter,32.383585,-85.91616
718,AL,719,Shorterville,31.625627,-85.14584
719,AL,720,Silas,31.766754,-88.309149
720,AL,721,Siluria,33.244167,-86.816389
721,AL,722,Silverhill,30.522237,-87.745676
722,AL,723,Sipsey,33.824722,-87.086111
723,AL,724,Skipperville,31.551588,-85.549578
724,AL,725,Slocomb,31.095558,-85.582954
725,AL,726,Smiths Station,32.520072,-85.100027
726,AL,727,Somerville,34.499548,-86.800931
727,AL,728,Spanish Fort,30.695852,-87.88668
728,AL,729,Spring Garden,33.972778,-85.553889
729,AL,730,Springville,33.738647,-86.439407
730,AL,731,Spruce Pine,34.384796,-87.712149
731,AL,732,Stanton,32.709631,-86.886848
732,AL,733,Stapleton,30.7425,-87.793333
733,AL,734,Steele,33.941679,-86.228929
734,AL,735,Sterrett,33.446103,-86.491732
735,AL,736,Stevenson,34.876885,-85.850803
736,AL,737,Stockton,31.01293,-87.863323
737,AL,738,Sulligent,33.8549,-88.150774
738,AL,739,Sumiton,33.768005,-87.044545
739,AL,740,Summerdale,30.475225,-87.699183
740,AL,741,Sunflower,31.382222,-88.008333
741,AL,742,Sweet Water,32.077272,-87.922755
742,AL,743,Sycamore,33.251111,-86.2025
743,AL,744,Sylacauga,33.171675,-86.271257
744,AL,745,Sylvania,34.558962,-85.792128
745,AL,746,Talladega,33.435445,-86.113352
746,AL,747,Tallassee,32.550997,-85.89781
747,AL,748,Tanner,34.713037,-86.989152
748,AL,749,Theodore,30.544374,-88.180748
749,AL,750,Thomaston,32.253776,-87.597438
750,AL,751,Thomasville,31.906728,-87.759842
751,AL,752,Thorsby,32.923755,-86.746724
752,AL,753,Tibbie,31.373742,-88.266828
753,AL,754,Titus,32.690019,-86.239334
754,AL,755,Toney,34.911644,-86.699951
755,AL,756,Town Creek,34.649138,-87.426195
756,AL,757,Townley,33.84702,-87.437248
757,AL,758,Toxey,31.93153,-88.31794
758,AL,759,Trafford,33.819038,-86.743414
759,AL,760,Trenton,34.740065,-86.291264
760,AL,761,Trinity,34.591771,-87.09127
761,AL,762,Troy,31.7567,-85.9993
762,AL,763,Trussville,33.633932,-86.598068
763,AL,764,Tuscaloosa,33.196891,-87.562666
764,AL,765,Tuscumbia,34.687432,-87.683259
765,AL,766,Tuskegee,32.431623,-85.68606
766,AL,767,Tuskegee Institute,32.430278,-85.705278
767,AL,768,Tyler,32.281924,-86.859867
768,AL,769,Union Grove,34.409345,-86.462793
769,AL,770,Union Springs,32.166252,-85.678746
770,AL,771,Uniontown,32.446966,-87.493398
771,AL,772,Uriah,31.313467,-87.570518
772,AL,773,Valhermoso Springs,34.538145,-86.678
773,AL,774,Valley,32.811349,-85.174911
774,AL,775,Valley,32.820833,-85.170833
775,AL,776,Valley Head,34.5697,-85.627208
776,AL,777,Vance,33.17498,-87.257362
777,AL,778,Vandiver,33.480704,-86.501278
778,AL,779,Verbena,32.759565,-86.543753
779,AL,780,Vernon,33.761285,-88.097919
780,AL,781,Vina,34.37116,-88.077422
781,AL,782,Vincent,33.401049,-86.399425
782,AL,783,Vinegar Bend,31.25841,-88.386466
783,AL,784,Vinemont,34.262121,-86.912512
784,AL,785,Vredenburgh,31.73443,-87.416184
785,AL,786,Wadley,33.149192,-85.551344
786,AL,787,Wagarville,31.410205,-88.070519
787,AL,788,Walnut Grove,34.065556,-86.306389
788,AL,789,Ward,32.334063,-88.297114
789,AL,790,Warrior,33.852862,-86.819849
790,AL,791,Waterloo,34.93568,-87.962412
791,AL,792,Watson,33.633611,-86.879444
792,AL,793,Wattsville,33.681389,-86.279722
793,AL,794,Waverly,32.763167,-85.514372
794,AL,795,Weaver,33.756286,-85.810666
795,AL,796,Webb,31.265618,-85.254385
796,AL,797,Wedowee,33.301854,-85.473737
797,AL,798,Wellington,33.863843,-85.915325
798,AL,799,Weogufka,33.02381,-86.304203
799,AL,800,West Blocton,33.142431,-87.13694
800,AL,801,West Greene,32.923611,-88.085278
801,AL,802,Westover,33.349444,-86.535833
802,AL,803,Wetumpka,32.54509,-86.188039
803,AL,804,Whatley,31.639453,-87.656502
804,AL,805,Wilmer,30.813745,-88.333196
805,AL,806,Wilsonville,33.229255,-86.529894
806,AL,807,Wilton,33.078611,-86.881667
807,AL,808,Winfield,33.930256,-87.79716
808,AL,809,Wing,31.148127,-86.56119
809,AL,810,Woodland,33.355453,-85.353768
810,AL,811,Woodstock,33.169808,-87.163469
811,AL,812,Woodville,34.668927,-86.22961
812,AL,813,York,32.472765,-88.268304
813,AR,814,Adona,35.046956,-92.903325
814,AR,815,Alexander,34.631266,-92.472673
815,AR,816,Alicia,35.942327,-91.081003
816,AR,817,Alix,35.430767,-93.726416
817,AR,818,Alleene,33.77,-94.260278
818,AR,819,Alma,35.500043,-94.207337
819,AR,820,Almyra,34.41459,-91.430992
820,AR,821,Alpena,36.299768,-93.2792
821,AR,822,Alpine,34.228889,-93.378889
822,AR,823,Altheimer,34.306168,-91.828916
823,AR,824,Altus,35.404873,-93.811494
824,AR,825,Amagon,35.561559,-91.079636
825,AR,826,Amity,34.259362,-93.420551
826,AR,827,Antoine,34.028296,-93.437169
827,AR,828,Arkadelphia,34.11525,-93.068989
828,AR,829,Arkansas City,33.614328,-91.232529
829,AR,830,Armorel,35.942843,-89.758118
830,AR,831,Ash Flat,36.219732,-91.610746
831,AR,832,Ashdown,33.678711,-94.135102
832,AR,833,Atkins,35.244948,-92.950696
833,AR,834,Aubrey,34.702727,-90.911331
834,AR,835,Augusta,35.278806,-91.352653
835,AR,836,Austin,35.028369,-91.959398
836,AR,837,Avoca,36.401944,-94.070556
837,AR,838,Bald Knob,35.311331,-91.550197
838,AR,839,Banks,33.549665,-92.260386
839,AR,840,Barling,35.332963,-94.308226
840,AR,841,Barton,34.5475,-90.768056
841,AR,842,Bassett,35.513808,-90.192155
842,AR,843,Batesville,35.782614,-91.63519
843,AR,844,Bauxite,34.545537,-92.360531
844,AR,845,Bay,35.74559,-90.550658
845,AR,846,Bearden,33.729797,-92.61802
846,AR,847,Beaver,36.473611,-93.767222
847,AR,848,Bee Branch,35.423367,-92.408523
848,AR,849,Beebe,35.093743,-91.907449
849,AR,850,Beech Grove,36.183172,-90.618084
850,AR,851,Beedeville,35.420267,-91.106371
851,AR,852,Beirne,33.888611,-93.203889
852,AR,853,Bella Vista,36.465086,-94.251969
853,AR,854,Belleville,35.103762,-93.451817
854,AR,855,Ben Lomond,33.835278,-94.118333
855,AR,856,Benton,34.580087,-92.595241
856,AR,857,Bentonville,36.357703,-94.22242
857,AR,858,Bergman,36.316111,-93.0075
858,AR,859,Berryville,36.351908,-93.558725
859,AR,860,Bexar,36.306103,-91.985998
860,AR,861,Big Flat,36.006824,-92.391681
861,AR,862,Bigelow,34.984659,-92.630842
862,AR,863,Biggers,36.342978,-90.784467
863,AR,864,Biscoe,34.833706,-91.490028
864,AR,865,Bismarck,34.311033,-93.187236
865,AR,866,Black Oak,35.835851,-90.354227
866,AR,867,Black Rock,36.114874,-91.117629
867,AR,868,Blevins,33.875468,-93.536035
868,AR,869,Blue Mountain,35.130386,-93.716797
869,AR,870,Bluff City,33.698191,-93.186811
870,AR,871,Bluffton,34.901635,-93.591946
871,AR,872,Blytheville,35.934482,-89.922497
872,AR,873,Board Camp,34.537778,-94.095278
873,AR,874,Boles,34.765363,-94.062864
874,AR,875,Bonnerdale,34.349751,-93.319415
875,AR,876,Bono,35.908592,-90.784753
876,AR,877,Booneville,35.136385,-93.927433
877,AR,878,Bradford,35.427655,-91.518973
878,AR,879,Bradley,33.106963,-93.627496
879,AR,880,Branch,35.297055,-93.94537
880,AR,881,Brickeys,34.854814,-90.537738
881,AR,882,Briggsville,34.916065,-93.515748
882,AR,883,Brinkley,34.878124,-91.188596
883,AR,884,Brockwell,36.135755,-91.951308
884,AR,885,Brookland,35.91647,-90.576228
885,AR,886,Bryant,34.606786,-92.492015
886,AR,887,Buckner,33.375323,-93.446998
887,AR,888,Bull Shoals,36.370958,-92.593765
888,AR,889,Burdette,35.814769,-89.942312
889,AR,890,Cabot,34.945724,-92.031771
890,AR,891,Caddo Gap,34.397579,-93.586376
891,AR,892,Caldwell,35.074444,-90.816667
892,AR,893,Cale,33.616403,-93.26497
893,AR,894,Calico Rock,36.144771,-92.145494
894,AR,895,Calion,33.328889,-92.538333
895,AR,896,Camden,33.575866,-92.833386
896,AR,897,Camp,36.402531,-91.726166
897,AR,898,Canehill,35.910992,-94.3862
898,AR,899,Caraway,35.758951,-90.335797
899,AR,900,Carlisle,34.793291,-91.745929
900,AR,901,Carthage,34.063625,-92.62623
901,AR,902,Casa,35.032168,-93.047005
902,AR,903,Cash,35.830145,-90.941007
903,AR,904,Casscoe,34.473625,-91.324798
904,AR,905,Cave City,35.951684,-91.544432
905,AR,906,Cave Springs,36.266771,-94.207836
906,AR,907,Cecil,35.434176,-93.942932
907,AR,908,Cedarville,35.590231,-94.344618
908,AR,909,Center Ridge,35.398063,-92.558167
909,AR,910,Centerton,36.366993,-94.30891
910,AR,911,Centerville,35.112778,-93.168611
911,AR,912,Charleston,35.311502,-94.03368
912,AR,913,Charlotte,35.833393,-91.396217
913,AR,914,Cherokee Village,36.297778,-91.515833
914,AR,915,Cherry Valley,35.399122,-90.761329
915,AR,916,Chester,35.689776,-94.202026
916,AR,917,Chidester,33.700148,-93.018716
917,AR,918,Choctaw,35.523528,-92.426412
918,AR,919,Clarendon,34.660138,-91.256426
919,AR,920,Clarkedale,35.309167,-90.236111
920,AR,921,Clarkridge,36.443311,-92.35159
921,AR,922,Clarksville,35.490763,-93.491056
922,AR,923,Cleveland,35.358328,-92.712821
923,AR,924,Clinton,35.604537,-92.475825
924,AR,925,Coal Hill,35.437117,-93.67203
925,AR,926,College Station,34.708056,-92.221111
926,AR,927,Colt,35.096062,-90.787204
927,AR,928,Columbus,33.745108,-93.85588
928,AR,929,Combs,35.848297,-93.825218
929,AR,930,Compton,36.097941,-93.309903
930,AR,931,Concord,35.641355,-91.833339
931,AR,932,Conway,35.084199,-92.423574
932,AR,933,Cord,35.81844,-91.337455
933,AR,934,Corning,36.415532,-90.58702
934,AR,935,Cotter,36.280378,-92.532787
935,AR,936,Cotton Plant,35.017827,-91.229043
936,AR,937,Cove,34.419159,-94.39234
937,AR,938,Coy,34.538611,-91.873889
938,AR,939,Crawfordsville,35.211873,-90.335107
939,AR,940,Crocketts Bluff,34.425272,-91.232079
940,AR,941,Crossett,33.152369,-91.959152
941,AR,942,Crumrod,34.216167,-90.949535
942,AR,943,Curtis,33.997778,-93.105556
943,AR,944,Cushman,35.869663,-91.776455
944,AR,945,Damascus,35.291042,-92.432952
945,AR,946,Danville,35.049541,-93.392933
946,AR,947,Dardanelle,35.195507,-93.187316
947,AR,948,Datto,36.389685,-90.723117
948,AR,949,De Queen,34.044206,-94.338559
949,AR,950,De Valls Bluff,34.744704,-91.498218
950,AR,951,De Witt,34.285312,-91.333627
951,AR,952,Decatur,36.334749,-94.453411
952,AR,953,Deer,35.852982,-93.317388
953,AR,954,Delaplaine,36.199485,-90.734482
954,AR,955,Delaware,35.278005,-93.346152
955,AR,956,Delight,34.023772,-93.524666
956,AR,957,Dell,35.850118,-90.035449
957,AR,958,Dennard,35.725236,-92.557456
958,AR,959,Dermott,33.524054,-91.439391
959,AR,960,Des Arc,34.97507,-91.511342
960,AR,961,Desha,35.731524,-91.678287
961,AR,962,Diamond City,36.464444,-92.92
962,AR,963,Diaz,35.638333,-91.265
963,AR,964,Dierks,34.13232,-94.015243
964,AR,965,Doddridge,33.105448,-93.954307
965,AR,966,Dolph,36.222878,-92.11766
966,AR,967,Donaldson,34.221221,-92.909384
967,AR,968,Dover,35.407356,-93.135526
968,AR,969,Drasco,35.661606,-91.939818
969,AR,970,Driver,35.559714,-89.960526
970,AR,971,Dumas,33.892102,-91.486056
971,AR,972,Dyer,35.492222,-94.1375
972,AR,973,Dyess,35.595394,-90.215716
973,AR,974,Earle,35.27989,-90.450261
974,AR,975,Edgemont,35.623006,-92.199471
975,AR,976,Edmondson,35.022309,-90.328672
976,AR,977,Egypt,35.868056,-90.945556
977,AR,978,El Dorado,33.20735,-92.662856
978,AR,979,El Paso,35.114176,-92.090076
979,AR,980,Elaine,34.308668,-90.873485
980,AR,981,Elizabeth,36.323776,-92.093366
981,AR,982,Elkins,36.017719,-94.007323
982,AR,983,Elm Springs,36.206111,-94.234167
983,AR,984,Emerson,33.089054,-93.198699
984,AR,985,Emmet,33.692896,-93.423242
985,AR,986,England,34.557458,-91.948422
986,AR,987,Enola,35.208705,-92.212328
987,AR,988,Ethel,34.243525,-91.139839
988,AR,989,Etowah,35.714707,-90.218172
989,AR,990,Eudora,33.12135,-91.271552
990,AR,991,Eureka Springs,36.485278,-93.731944
991,AR,992,Evansville,35.819345,-94.478936
992,AR,993,Evening Shade,36.085532,-91.598014
993,AR,994,Everton,36.153366,-92.914989
994,AR,995,Fairfield Bay,35.656111,-92.319167
995,AR,996,Farmington,36.043635,-94.253871
996,AR,997,Fayetteville,36.052045,-94.153395
997,AR,998,Fifty Six,35.991958,-92.218169
998,AR,999,Fisher,35.513956,-90.955001
999,AR,1000,Flippin,36.268219,-92.577995
1000,AR,1001,Floral,35.602337,-91.734101
1001,AR,1002,Fordyce,33.817648,-92.422475
1002,AR,1003,Foreman,33.71759,-94.388108
1003,AR,1004,Forrest City,35.009129,-90.788572
1004,AR,1005,Fort Smith,35.365272,-94.411035
1005,AR,1006,Fouke,33.302476,-93.900953
1006,AR,1007,Fountain Hill,33.342951,-91.835627
1007,AR,1008,Fox,35.768208,-92.304266
1008,AR,1009,Franklin,36.129093,-91.809592
1009,AR,1010,Frenchmans Bayou,35.478419,-90.055933
1010,AR,1011,Friendship,34.241225,-92.980393
1011,AR,1012,Fulton,33.629876,-93.808562
1012,AR,1013,Gamaliel,36.461794,-92.228447
1013,AR,1014,Garfield,36.428817,-93.951197
1014,AR,1015,Garland City,33.335161,-93.731624
1015,AR,1016,Garner,35.130305,-91.742884
1016,AR,1017,Gassville,36.317525,-92.473637
1017,AR,1018,Gateway,36.485751,-93.935016
1018,AR,1019,Genoa,33.383611,-93.909444
1019,AR,1020,Gentry,36.26516,-94.475131
1020,AR,1021,Gepp,36.436443,-92.099507
1021,AR,1022,Gilbert,35.987778,-92.716111
1022,AR,1023,Gillett,34.121838,-91.380048
1023,AR,1024,Gillham,34.157003,-94.316497
1024,AR,1025,Gilmore,35.386408,-90.264664
1025,AR,1026,Glencoe,36.288962,-91.769483
1026,AR,1027,Glenwood,34.319207,-93.555881
1027,AR,1028,Goodwin,34.959149,-90.983518
1028,AR,1029,Goshen,36.107523,-93.987262
1029,AR,1030,Gosnell,35.9272,-89.9188
1030,AR,1031,Gould,34.034503,-91.576798
1031,AR,1032,Grady,34.030484,-91.67082
1032,AR,1033,Grannis,34.237021,-94.3255
1033,AR,1034,Grapevine,34.130893,-92.310944
1034,AR,1035,Gravelly,34.888123,-93.680249
1035,AR,1036,Gravette,36.415513,-94.477862
1036,AR,1037,Green Forest,36.322408,-93.405875
1037,AR,1038,Greenbrier,35.229547,-92.357792
1038,AR,1039,Greenland,35.994167,-94.175
1039,AR,1040,Greenway,36.334766,-90.225257
1040,AR,1041,Greenwood,35.195476,-94.253027
1041,AR,1042,Gregory,35.155278,-91.343056
1042,AR,1043,Griffithville,35.114383,-91.624234
1043,AR,1044,Grubbs,35.649722,-91.073889
1044,AR,1045,Guion,35.960135,-91.934287
1045,AR,1046,Gurdon,33.912493,-93.141691
1046,AR,1047,Guy,35.318487,-92.331539
1047,AR,1048,Hackett,35.194476,-94.398328
1048,AR,1049,Hagarville,35.523291,-93.344256
1049,AR,1050,Hamburg,33.2058,-91.802265
1050,AR,1051,Hampton,33.537613,-92.52951
1051,AR,1052,Hardy,36.322746,-91.411027
1052,AR,1053,Harrell,33.510865,-92.391243
1053,AR,1054,Harriet,35.974187,-92.50055
1054,AR,1055,Harrisburg,35.572222,-90.703752
1055,AR,1056,Harrison,36.241707,-93.106162
1056,AR,1057,Hartford,35.022233,-94.381876
1057,AR,1058,Hartman,35.443583,-93.614196
1058,AR,1059,Harvey,34.867912,-93.752538
1059,AR,1060,Hasty,36.015229,-93.045966
1060,AR,1061,Hatfield,34.487703,-94.371397
1061,AR,1062,Hattieville,35.290713,-92.778317
1062,AR,1063,Havana,35.111845,-93.576719
1063,AR,1064,Haynes,34.883752,-90.766621
1064,AR,1065,Hazen,34.783833,-91.576699
1065,AR,1066,Heber Springs,35.510278,-92.039211
1066,AR,1067,Hector,35.40574,-92.965559
1067,AR,1068,Helena,34.532491,-90.629784
1068,AR,1069,Henderson,36.356829,-92.269253
1069,AR,1070,Hensley,34.591133,-92.214019
1070,AR,1071,Hermitage,33.422207,-92.127714
1071,AR,1072,Heth,35.097335,-90.458554
1072,AR,1073,Hickory Plains,34.978642,-91.750844
1073,AR,1074,Hickory Ridge,35.399457,-90.982283
1074,AR,1075,Higden,35.549812,-92.182284
1075,AR,1076,Higginson,35.188254,-91.71828
1076,AR,1077,Hindsville,36.142206,-93.863339
1077,AR,1078,Hiwasse,36.441589,-94.338993
1078,AR,1079,Holly Grove,34.599294,-91.184376
1079,AR,1080,Hope,33.656645,-93.590305
1080,AR,1081,Horatio,33.939221,-94.295942
1081,AR,1082,Horseshoe Bend,36.202502,-91.755334
1082,AR,1083,Hot Springs National Park,34.501475,-93.026024
1083,AR,1084,Hot Springs Village,34.6411,-93.0574
1084,AR,1085,Houston,35.036209,-92.691319
1085,AR,1086,Hoxie,36.032573,-90.971504
1086,AR,1087,Hughes,34.945416,-90.474142
1087,AR,1088,Humnoke,34.541896,-91.756616
1088,AR,1089,Humphrey,34.403387,-91.67896
1089,AR,1090,Hunter,35.052778,-91.126111
1090,AR,1091,Huntington,35.096267,-94.331283
1091,AR,1092,Huntsville,36.104348,-93.727893
1092,AR,1093,Huttig,33.045888,-92.194153
1093,AR,1094,Ida,35.594326,-91.930081
1094,AR,1095,Imboden,36.19763,-91.185442
1095,AR,1096,Ivan,33.902984,-92.439406
1096,AR,1097,Jacksonport,35.641667,-91.309444
1097,AR,1098,Jacksonville,34.881985,-92.130435
1098,AR,1099,Jasper,36.003798,-93.204771
1099,AR,1100,Jefferson,34.355285,-92.148574
1100,AR,1101,Jersey,33.388914,-92.296613
1101,AR,1102,Jerusalem,35.37975,-92.813886
1102,AR,1103,Jessieville,34.693729,-93.196318
1103,AR,1104,Johnson,36.132778,-94.165278
1104,AR,1105,Joiner,35.505239,-90.14779
1105,AR,1106,Jones Mill,34.453624,-92.861975
1106,AR,1107,Jonesboro,35.833016,-90.696526
1107,AR,1108,Judsonia,35.324954,-91.649087
1108,AR,1109,Junction City,33.043965,-92.684254
1109,AR,1110,Keiser,35.678626,-90.096171
1110,AR,1111,Kensett,35.229939,-91.669672
1111,AR,1112,Keo,34.604072,-92.007844
1112,AR,1113,Kingsland,33.86002,-92.301415
1113,AR,1114,Kingston,36.04845,-93.504357
1114,AR,1115,Kirby,34.255153,-93.616716
1115,AR,1116,Knobel,36.317647,-90.599048
1116,AR,1117,Knoxville,35.374897,-93.361797
1117,AR,1118,La Grange,34.656389,-90.732778
1118,AR,1119,Lafe,36.21547,-90.506973
1119,AR,1120,Lake City,35.81715,-90.442327
1120,AR,1121,Lake Village,33.327408,-91.282487
1121,AR,1122,Lakeview,36.397308,-92.504416
1122,AR,1123,Lamar,35.434868,-93.355157
1123,AR,1124,Lambrook,34.335556,-90.9675
1124,AR,1125,Laneburg,33.685,-93.346667
1125,AR,1126,Langley,34.314035,-93.850942
1126,AR,1127,Lavaca,35.337513,-94.165637
1127,AR,1128,Lawson,33.196667,-92.482778
1128,AR,1129,Leachville,35.933216,-90.195488
1129,AR,1130,Lead Hill,36.430886,-92.930194
1130,AR,1131,Leola,34.185605,-92.597865
1131,AR,1132,Lepanto,35.606909,-90.335883
1132,AR,1133,Leslie,35.82716,-92.566293
1133,AR,1134,Letona,35.361667,-91.829167
1134,AR,1135,Lewisville,33.373603,-93.595258
1135,AR,1136,Lexa,34.672694,-90.78532
1136,AR,1137,Light,36.07,-90.747778
1137,AR,1138,Lincoln,35.956931,-94.42724
1138,AR,1139,Little Rock,34.748342,-92.281939
1139,AR,1140,Little Rock Air Force Base,34.898611,-92.144167
1140,AR,1141,Lockesburg,33.930553,-94.127588
1141,AR,1142,Locust Grove,35.717705,-91.741443
1142,AR,1143,London,35.337017,-93.238907
1143,AR,1144,Lonoke,34.783162,-91.921367
1144,AR,1145,Lonsdale,34.556203,-92.834034
1145,AR,1146,Louann,33.411744,-92.782759
1146,AR,1147,Lowell,36.243318,-94.082725
1147,AR,1148,Luxora,35.760786,-89.92204
1148,AR,1149,Lynn,36.016639,-91.254588
1149,AR,1150,Mabelvale,34.621756,-92.384618
1150,AR,1151,Madison,35.013056,-90.7225
1151,AR,1152,Magazine,35.15873,-93.800336
1152,AR,1153,Magness,35.710062,-91.485041
1153,AR,1154,Magnolia,33.264678,-93.239153
1154,AR,1155,Malvern,34.355715,-92.829162
1155,AR,1156,Mammoth Spring,36.407648,-91.575712
1156,AR,1157,Manila,35.874885,-90.180252
1157,AR,1158,Mansfield,35.0432,-94.22036
1158,AR,1159,Marble Falls,36.095121,-93.144822
1159,AR,1160,Marcella,35.749654,-91.941891
1160,AR,1161,Marianna,34.775929,-90.77852
1161,AR,1162,Marion,35.2077,-90.198908
1162,AR,1163,Marked Tree,35.534933,-90.419387
1163,AR,1164,Marmaduke,36.195117,-90.38368
1164,AR,1165,Marshall,35.926697,-92.640203
1165,AR,1166,Marvell,34.548541,-90.941322
1166,AR,1167,Maumelle,34.849085,-92.405892
1167,AR,1168,Mayflower,34.966853,-92.400102
1168,AR,1169,Maynard,36.438563,-90.874921
1169,AR,1170,Maysville,36.401062,-94.581278
1170,AR,1171,Mc Caskill,33.923042,-93.626605
1171,AR,1172,Mc Crory,35.247292,-91.179327
1172,AR,1173,Mc Dougal,36.379909,-90.394093
1173,AR,1174,Mc Gehee,33.62971,-91.392781
1174,AR,1175,Mc Neil,33.36222,-93.193006
1175,AR,1176,Mc Rae,35.11322,-91.821551
1176,AR,1177,Melbourne,36.059958,-91.905196
1177,AR,1178,Mellwood,34.220032,-91.008589
1178,AR,1179,Mena,34.581435,-94.220984
1179,AR,1180,Menifee,35.148333,-92.553889
1180,AR,1181,Midland,35.093056,-94.353056
1181,AR,1182,Midway,36.290454,-92.431398
1182,AR,1183,Mineral Springs,33.863852,-93.918828
1183,AR,1184,Minturn,35.976096,-91.033704
1184,AR,1185,Monette,35.900168,-90.343658
1185,AR,1186,Monroe,34.734722,-91.104444
1186,AR,1187,Monticello,33.624951,-91.794845
1187,AR,1188,Montrose,33.307516,-91.522776
1188,AR,1189,Moro,34.802953,-91.006026
1189,AR,1190,Morrilton,35.169227,-92.735436
1190,AR,1191,Morrow,35.85373,-94.425793
1191,AR,1192,Moscow,34.146389,-91.795
1192,AR,1193,Mount Holly,33.308534,-92.944265
1193,AR,1194,Mount Ida,34.561194,-93.574904
1194,AR,1195,Mount Judea,35.834674,-93.082391
1195,AR,1196,Mount Pleasant,35.975909,-91.785013
1196,AR,1197,Mount Vernon,35.260613,-92.137334
1197,AR,1198,Mountain Home,36.331153,-92.375337
1198,AR,1199,Mountain Pine,34.577182,-93.160041
1199,AR,1200,Mountain View,35.865769,-92.114762
1200,AR,1201,Mountainburg,35.570027,-94.109094
1201,AR,1202,Mulberry,35.517246,-93.988505
1202,AR,1203,Murfreesboro,34.101734,-93.710903
1203,AR,1204,Nashville,33.957646,-93.870709
1204,AR,1205,Natural Dam,35.674259,-94.412377
1205,AR,1206,New Blaine,35.318912,-93.44457
1206,AR,1207,New Edinburg,33.758846,-92.193909
1207,AR,1208,Newark,35.71183,-91.439395
1208,AR,1209,Newhope,34.227347,-93.890487
1209,AR,1210,Newport,35.598823,-91.257064
1210,AR,1211,Norfork,36.206571,-92.273011
1211,AR,1212,Norman,34.459633,-93.674304
1212,AR,1213,Norphlet,33.309619,-92.657619
1213,AR,1214,North Little Rock,34.766974,-92.265376
1214,AR,1215,O Kean,36.179672,-90.824069
1215,AR,1216,Oak Grove,36.461347,-93.432129
1216,AR,1217,Oakland,36.444227,-92.583187
1217,AR,1218,Oark,35.709454,-93.558531
1218,AR,1219,Oden,34.611292,-93.821103
1219,AR,1220,Ogden,33.585706,-94.027826
1220,AR,1221,Oil Trough,35.613147,-91.470305
1221,AR,1222,Okolona,34.055138,-93.289679
1222,AR,1223,Ola,35.03091,-93.21356
1223,AR,1224,Omaha,36.46123,-93.188753
1224,AR,1225,Oneida,34.405267,-90.826045
1225,AR,1226,Onia,35.940339,-92.345859
1226,AR,1227,Osceola,35.701864,-89.979764
1227,AR,1228,Oxford,36.211408,-91.925849
1228,AR,1229,Ozan,33.902775,-93.771443
1229,AR,1230,Ozark,35.524645,-93.837423
1230,AR,1231,Ozone,35.657478,-93.43111
1231,AR,1232,Palestine,34.966346,-90.904929
1232,AR,1233,Pangburn,35.421583,-91.795971
1233,AR,1234,Paragould,36.060033,-90.525093
1234,AR,1235,Paris,35.294149,-93.726469
1235,AR,1236,Parkdale,33.121267,-91.542793
1236,AR,1237,Parkin,35.258557,-90.556417
1237,AR,1238,Parks,34.800333,-93.950913
1238,AR,1239,Paron,34.785289,-92.748176
1239,AR,1240,Parthenon,35.940836,-93.267776
1240,AR,1241,Patterson,35.256667,-91.235
1241,AR,1242,Pea Ridge,36.453884,-94.118026
1242,AR,1243,Peach Orchard,36.283045,-90.670217
1243,AR,1244,Pearcy,34.435092,-93.242015
1244,AR,1245,Peel,36.444374,-92.776143
1245,AR,1246,Pelsor,35.691158,-93.016088
1246,AR,1247,Pencil Bluff,34.639946,-93.742947
1247,AR,1248,Perry,35.042732,-92.787976
1248,AR,1249,Perryville,34.970096,-92.847171
1249,AR,1250,Pettigrew,35.834562,-93.618079
1250,AR,1251,Pickens,33.807923,-91.39157
1251,AR,1252,Piggott,36.386993,-90.19261
1252,AR,1253,Pindall,36.067479,-92.886409
1253,AR,1254,Pine Bluff,34.215405,-91.995812
1254,AR,1255,Pineville,36.167704,-92.107299
1255,AR,1256,Plainview,34.966793,-93.309897
1256,AR,1257,Pleasant Grove,35.842349,-91.931905
1257,AR,1258,Pleasant Plains,35.589301,-91.632043
1258,AR,1259,Plumerville,35.157466,-92.620435
1259,AR,1260,Pocahontas,36.282876,-90.996782
1260,AR,1261,Pollard,36.431725,-90.275123
1261,AR,1262,Ponca,36.066225,-93.401985
1262,AR,1263,Poplar Grove,34.539397,-90.881274
1263,AR,1264,Portia,36.080699,-91.068004
1264,AR,1265,Portland,33.231773,-91.513935
1265,AR,1266,Pottsville,35.239785,-93.056386
1266,AR,1267,Poughkeepsie,36.071526,-91.451575
1267,AR,1268,Powhatan,36.080044,-91.148214
1268,AR,1269,Poyen,34.350828,-92.599037
1269,AR,1270,Prairie Grove,35.991809,-94.316861
1270,AR,1271,Prattsville,34.307865,-92.513105
1271,AR,1272,Prescott,33.804029,-93.372544
1272,AR,1273,Prim,35.685733,-92.134596
1273,AR,1274,Proctor,35.083396,-90.255026
1274,AR,1275,Pyatt,36.245833,-92.844722
1275,AR,1276,Quitman,35.404988,-92.133334
1276,AR,1277,Ratcliff,35.276032,-93.842149
1277,AR,1278,Ravenden,36.202863,-91.25934
1278,AR,1279,Ravenden Springs,36.310384,-91.209433
1279,AR,1280,Rector,36.267177,-90.270201
1280,AR,1281,Redfield,34.452647,-92.17579
1281,AR,1282,Reydell,34.143281,-91.550395
1282,AR,1283,Reyno,36.362778,-90.753611
1283,AR,1284,Rison,33.945325,-92.118762
1284,AR,1285,Rivervale,35.673889,-90.34
1285,AR,1286,Roe,34.628592,-91.377058
1286,AR,1287,Rogers,36.336316,-94.114784
1287,AR,1288,Roland,34.88287,-92.519152
1288,AR,1289,Romance,35.215462,-92.06985
1289,AR,1290,Rose Bud,35.321447,-92.061988
1290,AR,1291,Rosie,35.663816,-91.534003
1291,AR,1292,Rosston,33.561693,-93.303891
1292,AR,1293,Rover,34.947522,-93.401728
1293,AR,1294,Royal,34.515049,-93.289734
1294,AR,1295,Rudy,35.539805,-94.237376
1295,AR,1296,Russell,35.3625,-91.5075
1296,AR,1297,Russellville,35.284208,-93.131476
1297,AR,1298,Saffell,35.917957,-91.297753
1298,AR,1299,Sage,36.042476,-91.824569
1299,AR,1300,Saint Charles,34.335296,-91.16808
1300,AR,1301,Saint Francis,36.454771,-90.144991
1301,AR,1302,Saint Joe,35.987707,-92.792828
1302,AR,1303,Saint Paul,35.849576,-93.734743
1303,AR,1304,Salado,35.703493,-91.597924
1304,AR,1305,Salem,36.365401,-91.836321
1305,AR,1306,Saratoga,33.759883,-93.876723
1306,AR,1307,Scotland,35.507956,-92.586652
1307,AR,1308,Scott,34.694215,-92.11566
1308,AR,1309,Scranton,35.330816,-93.539362
1309,AR,1310,Searcy,35.253512,-91.762931
1310,AR,1311,Sedgwick,35.985965,-90.880099
1311,AR,1312,Sheridan,34.316527,-92.365713
1312,AR,1313,Sherrill,34.358148,-91.993285
1313,AR,1314,Sherwood,34.859292,-92.214169
1314,AR,1315,Shirley,35.573259,-92.29751
1315,AR,1316,Sidney,35.991554,-91.634593
1316,AR,1317,Siloam Springs,36.179969,-94.528036
1317,AR,1318,Sims,34.646181,-93.674071
1318,AR,1319,Smackover,33.339831,-92.74425
1319,AR,1320,Smithville,36.090815,-91.274456
1320,AR,1321,Snow Lake,34.066466,-91.007083
1321,AR,1322,Solgohachia,35.270056,-92.675387
1322,AR,1323,Sparkman,33.902989,-92.810984
1323,AR,1324,Springdale,36.183521,-94.176216
1324,AR,1325,Springfield,35.274879,-92.54567
1325,AR,1326,Stamps,33.356877,-93.501307
1326,AR,1327,Star City,33.940528,-91.865343
1327,AR,1328,State University,35.914894,-90.454245
1328,AR,1329,Stephens,33.455044,-93.021391
1329,AR,1330,Story,34.668695,-93.537587
1330,AR,1331,Strawberry,35.972622,-91.375398
1331,AR,1332,Strong,33.119526,-92.362104
1332,AR,1333,Sturkie,36.463869,-91.989917
1333,AR,1334,Stuttgart,34.485358,-91.548742
1334,AR,1335,Subiaco,35.31346,-93.63869
1335,AR,1336,Success,36.453615,-90.728128
1336,AR,1337,Sulphur Rock,35.754466,-91.507333
1337,AR,1338,Sulphur Springs,36.479434,-94.452069
1338,AR,1339,Summers,36.013827,-94.500027
1339,AR,1340,Summit,36.252222,-92.690556
1340,AR,1341,Sweet Home,34.686389,-92.242222
1341,AR,1342,Swifton,35.827366,-91.126358
1342,AR,1343,Taylor,33.107957,-93.446019
1343,AR,1344,Texarkana,33.441667,-94.0375
1344,AR,1345,Thida,35.553556,-91.461823
1345,AR,1346,Thornton,33.767694,-92.468299
1346,AR,1347,Tichnor,34.089311,-91.243684
1347,AR,1348,Tillar,33.67479,-91.520287
1348,AR,1349,Tilly,35.6976,-92.844209
1349,AR,1350,Timbo,35.896338,-92.252536
1350,AR,1351,Tontitown,36.177778,-94.233333
1351,AR,1352,Traskwood,34.450791,-92.654734
1352,AR,1353,Trumann,35.668914,-90.518738
1353,AR,1354,Tucker,34.441442,-91.916265
1354,AR,1355,Tuckerman,35.730678,-91.200347
1355,AR,1356,Tumbling Shoals,35.546985,-91.970359
1356,AR,1357,Tupelo,35.393056,-91.230556
1357,AR,1358,Turner,34.476111,-91.018611
1358,AR,1359,Turrell,35.296936,-90.262979
1359,AR,1360,Tyronza,35.486477,-90.351944
1360,AR,1361,Ulm,34.579938,-91.51343
1361,AR,1362,Umpire,34.292129,-94.031377
1362,AR,1363,Uniontown,35.574822,-94.43487
1363,AR,1364,Urbana,33.103,-92.493
1364,AR,1365,Valley Springs,36.146823,-92.979937
1365,AR,1366,Van Buren,35.453989,-94.327762
1366,AR,1367,Vandervoort,34.379535,-94.369788
1367,AR,1368,Vanndale,35.313333,-90.773889
1368,AR,1369,Vendor,35.948062,-93.100815
1369,AR,1370,Vilonia,35.071895,-92.183235
1370,AR,1371,Viola,36.392429,-91.993198
1371,AR,1372,Violet Hill,36.162966,-91.847064
1372,AR,1373,Wabash,34.388611,-90.828611
1373,AR,1374,Wabbaseka,34.393552,-91.754948
1374,AR,1375,Walcott,36.043333,-90.671111
1375,AR,1376,Waldenburg,35.565278,-90.933611
1376,AR,1377,Waldo,33.360017,-93.294915
1377,AR,1378,Waldron,34.902642,-94.077243
1378,AR,1379,Walnut Ridge,36.077814,-90.952809
1379,AR,1380,Ward,34.95316,-91.900383
1380,AR,1381,Warm Springs,36.467531,-91.038707
1381,AR,1382,Warren,33.613983,-92.077824
1382,AR,1383,Washington,33.754596,-93.673529
1383,AR,1384,Watson,33.890737,-91.281455
1384,AR,1385,Weiner,35.629052,-90.928928
1385,AR,1386,Wesley,35.957264,-93.911478
1386,AR,1387,West Fork,35.908153,-94.230375
1387,AR,1388,West Helena,34.549635,-90.654531
1388,AR,1389,West Memphis,35.148442,-90.17792
1389,AR,1390,West Point,35.206944,-91.614167
1390,AR,1391,West Ridge,35.683056,-90.2625
1391,AR,1392,Western Grove,36.082994,-92.971649
1392,AR,1393,Wheatley,34.920703,-91.108645
1393,AR,1394,Whelen Springs,33.830833,-93.126111
1394,AR,1395,White Hall,34.257001,-92.089718
1395,AR,1396,Wickes,34.308806,-94.340257
1396,AR,1397,Wideman,36.198739,-92.001796
1397,AR,1398,Widener,35.059167,-90.629313
1398,AR,1399,Wilburn,35.454547,-91.907248
1399,AR,1400,Williford,36.245335,-91.379226
1400,AR,1401,Willisville,33.484731,-93.31212
1401,AR,1402,Wilmar,33.621296,-91.925697
1402,AR,1403,Wilmot,33.057557,-91.572283
1403,AR,1404,Wilson,35.566004,-90.042749
1404,AR,1405,Wilton,33.734794,-94.135746
1405,AR,1406,Winchester,33.752039,-91.543059
1406,AR,1407,Winslow,35.831206,-94.118657
1407,AR,1408,Winthrop,33.858321,-94.395174
1408,AR,1409,Wiseman,36.228022,-91.849499
1409,AR,1410,Witter,35.935583,-93.621
1410,AR,1411,Witts Springs,35.785514,-92.815518
1411,AR,1412,Woodson,34.529167,-92.210833
1412,AR,1413,Wooster,35.197308,-92.450998
1413,AR,1414,Wright,34.437656,-92.06308
1414,AR,1415,Wrightsville,34.602222,-92.216667
1415,AR,1416,Wynne,35.233036,-90.79303
1416,AR,1417,Yellville,36.225322,-92.724472
1417,AR,1418,Yorktown,34.017166,-91.796472
1418,AZ,1419,Aguila,33.942778,-113.173333
1419,AZ,1420,Ajo,32.373485,-112.858681
1420,AZ,1421,Alpine,33.827878,-109.12829
1421,AZ,1422,Amado,31.643759,-111.072233
1422,AZ,1423,Apache Junction,33.3277,-111.3259
1423,AZ,1424,Arivaca,31.574722,-111.331667
1424,AZ,1425,Arizona City,32.755833,-111.670278
1425,AZ,1426,Arlington,33.313317,-112.789058
1426,AZ,1427,Ash Fork,35.214998,-112.502681
1427,AZ,1428,Avondale,33.432114,-112.343754
1428,AZ,1429,Bagdad,34.578484,-113.175535
1429,AZ,1430,Bapchule,33.136389,-111.8725
1430,AZ,1431,Bellemont,35.238056,-111.832778
1431,AZ,1432,Benson,31.98826,-110.294113
1432,AZ,1433,Bisbee,31.408557,-109.911736
1433,AZ,1434,Black Canyon City,34.073197,-112.130956
1434,AZ,1435,Blue,33.651245,-109.06849
1435,AZ,1436,Blue Gap,36.100833,-110.225278
1436,AZ,1437,Bouse,33.9325,-114.005
1437,AZ,1438,Bowie,32.326389,-109.486389
1438,AZ,1439,Buckeye,33.38896,-112.607728
1439,AZ,1440,Bullhead City,35.1678,-114.543
1440,AZ,1441,Bylas,33.126549,-110.11702
1441,AZ,1442,Cameron,35.7163,-111.4088
1442,AZ,1443,Camp Verde,34.569733,-111.855131
1443,AZ,1444,Carefree,33.822222,-111.9175
1444,AZ,1445,Casa Grande,32.892667,-111.756093
1445,AZ,1446,Cashion,33.435278,-112.297222
1446,AZ,1447,Catalina,32.497222,-110.923611
1447,AZ,1448,Cave Creek,33.833333,-111.95
1448,AZ,1449,Central,32.8675,-109.792222
1449,AZ,1450,Chambers,35.143044,-109.37389
1450,AZ,1451,Chandler,33.330091,-111.863156
1451,AZ,1452,Chandler Heights,33.211944,-111.685556
1452,AZ,1453,Chinle,36.130367,-109.603693
1453,AZ,1454,Chino Valley,34.775739,-112.473099
1454,AZ,1455,Chloride,35.414444,-114.198611
1455,AZ,1456,Cibecue,34.044722,-110.484722
1456,AZ,1457,Cibola,33.614886,-114.512204
1457,AZ,1458,Clarkdale,34.747793,-112.033417
1458,AZ,1459,Clay Springs,34.361667,-110.294722
1459,AZ,1460,Claypool,33.411111,-110.841944
1460,AZ,1461,Clifton,33.132343,-109.246199
1461,AZ,1462,Cochise,32.097891,-109.92393
1462,AZ,1463,Colorado City,36.976266,-112.952427
1463,AZ,1464,Concho,34.445787,-109.674096
1464,AZ,1465,Congress,34.176425,-112.76801
1465,AZ,1466,Coolidge,32.957399,-111.534378
1466,AZ,1467,Cornville,34.725593,-111.908556
1467,AZ,1468,Cortaro,32.356111,-111.087778
1468,AZ,1469,Cottonwood,34.705547,-112.009099
1469,AZ,1470,Crown King,34.224062,-112.333971
1470,AZ,1471,Dateland,32.867886,-113.463126
1471,AZ,1472,Dennehotso,36.777286,-109.861001
1472,AZ,1473,Dewey,34.536753,-112.256665
1473,AZ,1474,Dolan Springs,35.774789,-114.547771
1474,AZ,1475,Douglas,31.35111,-109.544698
1475,AZ,1476,Dragoon,32.028056,-110.038056
1476,AZ,1477,Duncan,32.793976,-109.129575
1477,AZ,1478,Eagar,33.954571,-109.246933
1478,AZ,1479,Eden,33.028629,-109.953682
1479,AZ,1480,Ehrenberg,33.604167,-114.524444
1480,AZ,1481,El Mirage,33.608153,-112.324147
1481,AZ,1482,Elfrida,31.713891,-109.619277
1482,AZ,1483,Elgin,31.66002,-110.611403
1483,AZ,1484,Eloy,32.750929,-111.583275
1484,AZ,1485,Flagstaff,35.185911,-111.661979
1485,AZ,1486,Florence,32.996881,-111.361234
1486,AZ,1487,Forest Lakes,34.431389,-110.593333
1487,AZ,1488,Fort Apache,33.790556,-109.988056
1488,AZ,1489,Fort Defiance,35.744444,-109.075833
1489,AZ,1490,Fort Huachuca,31.558735,-110.344131
1490,AZ,1491,Fort Mcdowell,33.611807,-111.68062
1491,AZ,1492,Fort Mohave,35.0112,-114.5849
1492,AZ,1493,Fort Thomas,33.036944,-109.964722
1493,AZ,1494,Fountain Hills,33.608489,-111.723685
1494,AZ,1495,Fredonia,36.904397,-112.497864
1495,AZ,1496,Gadsden,32.554444,-114.784167
1496,AZ,1497,Ganado,35.651844,-109.283168
1497,AZ,1498,Gila Bend,32.93059,-112.746832
1498,AZ,1499,Gilbert,33.35,-111.8092
1499,AZ,1500,Glendale,33.531122,-112.176703
1500,AZ,1501,Glendale Luke Afb,33.539993,-112.356186
1501,AZ,1502,Globe,33.402426,-110.789247
1502,AZ,1503,Golden Valley,35.2102,-114.2764
1503,AZ,1504,Goodyear,33.436809,-112.383385
1504,AZ,1505,Grand Canyon,36.054444,-112.138611
1505,AZ,1506,Gray Mountain,35.6679,-111.484
1506,AZ,1507,Green Valley,31.854271,-111.000253
1507,AZ,1508,Greer,34.01,-109.458056
1508,AZ,1509,Hackberry,35.369167,-113.726389
1509,AZ,1510,Happy Jack,34.743333,-111.406667
1510,AZ,1511,Hayden,33.004722,-110.784722
1511,AZ,1512,Heber,34.4163,-110.568647
1512,AZ,1513,Hereford,31.403545,-110.204728
1513,AZ,1514,Higley,33.302382,-111.696926
1514,AZ,1515,Holbrook,34.908451,-110.143412
1515,AZ,1516,Hotevilla,36.211141,-110.566107
1516,AZ,1517,Houck,35.283,-109.2063
1517,AZ,1518,Huachuca City,31.663896,-110.333414
1518,AZ,1519,Hualapai,35.540732,-113.295324
1519,AZ,1520,Humboldt,34.500833,-112.236667
1520,AZ,1521,Indian Wells,35.405556,-110.084167
1521,AZ,1522,Iron Springs,34.673,-112.5211
1522,AZ,1523,Jerome,34.748889,-112.113056
1523,AZ,1524,Joseph City,34.955833,-110.333333
1524,AZ,1525,Kaibeto,36.484798,-111.136973
1525,AZ,1526,Kayenta,36.688327,-110.265229
1526,AZ,1527,Keams Canyon,35.808206,-110.284461
1527,AZ,1528,Kearny,33.059443,-110.91227
1528,AZ,1529,Kingman,35.258379,-114.05689
1529,AZ,1530,Kirkland,34.454149,-112.896641
1530,AZ,1531,Kykotsmovi Village,35.579084,-110.368805
1531,AZ,1532,Lake Havasu City,34.492879,-114.308083
1532,AZ,1533,Lake Montezuma,34.632222,-111.777222
1533,AZ,1534,Lakeside,34.166224,-109.986878
1534,AZ,1535,Laveen,33.343572,-112.171618
1535,AZ,1536,Leupp,35.336528,-110.992651
1536,AZ,1537,Litchfield Park,33.494127,-112.380497
1537,AZ,1538,Littlefield,36.866524,-113.913693
1538,AZ,1539,Lukachukai,36.418111,-109.244614
1539,AZ,1540,Lukeville,31.8825,-112.815
1540,AZ,1541,Lupton,35.4086,-109.07
1541,AZ,1542,Mammoth,32.723875,-110.643961
1542,AZ,1543,Many Farms,36.408259,-109.634021
1543,AZ,1544,Marana,32.404749,-111.273621
1544,AZ,1545,Marble Canyon,36.956943,-111.558166
1545,AZ,1546,Maricopa,32.987379,-112.075228
1546,AZ,1547,Mayer,34.365535,-112.129551
1547,AZ,1548,Mc Neal,31.502969,-109.630971
1548,AZ,1549,Mcnary,34.073611,-109.856389
1549,AZ,1550,Meadview,35.813733,-114.327696
1550,AZ,1551,Mesa,33.43174,-111.846931
1551,AZ,1552,Miami,33.431928,-110.881182
1552,AZ,1553,Mohave Valley,34.892942,-114.595115
1553,AZ,1554,Morenci,33.043593,-109.311517
1554,AZ,1555,Mormon Lake,34.916896,-111.454914
1555,AZ,1556,Morristown,33.772993,-112.548331
1556,AZ,1557,Mount Lemmon,32.438056,-110.734167
1557,AZ,1558,Munds Park,34.945556,-111.639444
1558,AZ,1559,Naco,31.335278,-109.9475
1559,AZ,1560,Nazlini,35.711389,-109.541389
1560,AZ,1561,New River,33.9059,-112.1345
1561,AZ,1562,Nogales,31.376969,-110.943508
1562,AZ,1563,North Rim,36.945556,-112.525833
1563,AZ,1564,Nutrioso,33.953056,-109.208611
1564,AZ,1565,Oatman,35.026389,-114.382778
1565,AZ,1566,Oracle,32.600506,-110.796126
1566,AZ,1567,Overgaard,34.390833,-110.5525
1567,AZ,1568,Page,36.896625,-111.43847
1568,AZ,1569,Palo Verde,33.34848,-112.646662
1569,AZ,1570,Paradise Valley,33.549439,-111.956546
1570,AZ,1571,Parker,34.0254,-114.266342
1571,AZ,1572,Parks,35.1898,-112.0187
1572,AZ,1573,Patagonia,31.535317,-110.696774
1573,AZ,1574,Paulden,35.03129,-112.544105
1574,AZ,1575,Payson,34.219779,-111.287774
1575,AZ,1576,Peach Springs,35.537795,-113.420199
1576,AZ,1577,Pearce,31.966608,-109.795032
1577,AZ,1578,Peoria,33.576135,-112.234424
1578,AZ,1579,Peridot,33.478874,-110.37252
1579,AZ,1580,Petrified Forest Natl Pk,34.773889,-109.887778
1580,AZ,1581,Phoenix,33.451,-112.0685
1581,AZ,1582,Picacho,32.716111,-111.494722
1582,AZ,1583,Pima,32.909661,-109.856009
1583,AZ,1584,Pine,34.390915,-111.473483
1584,AZ,1585,Pinedale,34.3075,-110.250833
1585,AZ,1586,Pinetop,34.117459,-109.919668
1586,AZ,1587,Pinon,36.100243,-110.221077
1587,AZ,1588,Pirtleville,31.356944,-109.561111
1588,AZ,1589,Polacca,35.811812,-110.51114
1589,AZ,1590,Pomerene,31.999444,-110.285556
1590,AZ,1591,Poston,33.990556,-114.395556
1591,AZ,1592,Prescott,34.629909,-113.022459
1592,AZ,1593,Prescott Valley,34.61,-112.315
1593,AZ,1594,Quartzsite,33.5675,-114.2731
1594,AZ,1595,Queen Creek,33.238577,-111.643596
1595,AZ,1596,Queen Creek,33.151087,-111.511058
1596,AZ,1597,Red Rock,32.576111,-111.325
1597,AZ,1598,Red Valley,35.915556,-109.029167
1598,AZ,1599,Rillito,32.414722,-111.155556
1599,AZ,1600,Rimrock,34.63799,-111.784222
1600,AZ,1601,Rio Rico,31.4851,-110.9898
1601,AZ,1602,Rio Verde,33.7316,-111.6811
1602,AZ,1603,Rock Point,36.718056,-109.625278
1603,AZ,1604,Roll,32.936635,-113.564287
1604,AZ,1605,Roosevelt,33.635753,-110.974884
1605,AZ,1606,Round Rock,36.502222,-109.553056
1606,AZ,1607,Sacaton,33.097699,-111.775162
1607,AZ,1608,Safford,32.829491,-109.626641
1608,AZ,1609,Sahuarita,31.945169,-111.000154
1609,AZ,1610,Saint David,31.897251,-110.215377
1610,AZ,1611,Saint Johns,34.501008,-109.379617
1611,AZ,1612,Saint Michaels,35.644722,-109.095
1612,AZ,1613,Salome,33.748141,-113.571459
1613,AZ,1614,San Carlos,33.310643,-110.395323
1614,AZ,1615,San Luis,32.486944,-114.781389
1615,AZ,1616,San Manuel,32.695831,-110.656788
1616,AZ,1617,San Simon,32.208167,-109.367152
1617,AZ,1618,Sanders,35.216389,-109.333056
1618,AZ,1619,Sasabe,31.488611,-111.541389
1619,AZ,1620,Scottsdale,33.521767,-111.904926
1620,AZ,1621,Second Mesa,35.903782,-110.6472
1621,AZ,1622,Sedona,34.8697,-111.7602
1622,AZ,1623,Sedona,34.826645,-111.750627
1623,AZ,1624,Seligman,35.321246,-112.954805
1624,AZ,1625,Sells,32.031572,-111.922207
1625,AZ,1626,Shonto,36.61594,-110.647743
1626,AZ,1627,Show Low,34.060117,-110.054633
1627,AZ,1628,Sierra Vista,31.536467,-110.266565
1628,AZ,1629,Skull Valley,34.505278,-112.684722
1629,AZ,1630,Snowflake,34.495859,-110.080742
1630,AZ,1631,Solomon,32.8125,-109.633333
1631,AZ,1632,Somerton,32.563398,-114.7127
1632,AZ,1633,Sonoita,31.866154,-110.724418
1633,AZ,1634,Springerville,34.119333,-109.304066
1634,AZ,1635,Stanfield,32.882321,-111.965987
1635,AZ,1636,Sun City,33.606104,-112.279701
1636,AZ,1637,Sun City West,33.662576,-112.255434
1637,AZ,1638,Sun Valley,34.250833,-111.254444
1638,AZ,1639,Supai,36.224157,-112.693212
1639,AZ,1640,Superior,33.288716,-111.09846
1640,AZ,1641,Surprise,33.630028,-112.33143
1641,AZ,1642,Tacna,32.6975,-113.952778
1642,AZ,1643,Taylor,34.465,-110.090556
1643,AZ,1644,Teec Nos Pos,36.779694,-109.359039
1644,AZ,1645,Tempe,33.4273,-111.9307
1645,AZ,1646,Temple Bar Marina,36.025556,-114.318056
1646,AZ,1647,Thatcher,32.819902,-109.730245
1647,AZ,1648,Tolleson,33.434686,-112.277444
1648,AZ,1649,Tombstone,31.721598,-110.058449
1649,AZ,1650,Tonalea,35.934555,-110.882042
1650,AZ,1651,Tonopah,33.422797,-112.952785
1651,AZ,1652,Tonto Basin,33.930278,-111.308056
1652,AZ,1653,Topawa,31.813889,-111.825
1653,AZ,1654,Topock,34.778388,-114.481666
1654,AZ,1655,Tortilla Flat,33.526389,-111.389167
1655,AZ,1656,Tsaile,36.307075,-109.217627
1656,AZ,1657,Tuba City,36.103729,-111.268566
1657,AZ,1658,Tubac,31.6125,-111.045278
1658,AZ,1659,Tucson,32.213873,-110.969445
1659,AZ,1660,Tumacacori,31.594194,-111.039693
1660,AZ,1661,Vail,32.035926,-110.88375
1661,AZ,1662,Valentine,35.3717,-113.8213
1662,AZ,1663,Valley Farms,32.988333,-111.446667
1663,AZ,1664,Vernon,34.2575,-109.692222
1664,AZ,1665,Waddell,33.567285,-112.43869
1665,AZ,1666,Wellton,32.749251,-114.176616
1666,AZ,1667,Wenden,33.8225,-113.540833
1667,AZ,1668,White Mountain Lake,34.348333,-109.996944
1668,AZ,1669,Whiteriver,33.836944,-109.963611
1669,AZ,1670,Wickenburg,33.968611,-112.728889
1670,AZ,1671,Wikieup,34.703333,-113.610556
1671,AZ,1672,Willcox,32.372977,-109.863111
1672,AZ,1673,Williams,35.249842,-112.190623
1673,AZ,1674,Willow Beach,35.8316,-114.4441
1674,AZ,1675,Window Rock,35.680556,-109.051944
1675,AZ,1676,Winkelman,33.00572,-110.772682
1676,AZ,1677,Winslow,35.16078,-110.511382
1677,AZ,1678,Wittmann,33.726425,-112.446578
1678,AZ,1679,Woodruff,34.513333,-110.077778
1679,AZ,1680,Yarnell,34.414076,-112.62166
1680,AZ,1681,Young,34.101389,-110.963056
1681,AZ,1682,Youngtown,33.590751,-112.301305
1682,AZ,1683,Yucca,34.872222,-114.148611
1683,AZ,1684,Yuma,32.701507,-114.642362
1684,CA,1685,Acampo,38.200413,-121.218576
1685,CA,1686,Acton,34.483541,-118.195929
1686,CA,1687,Adelanto,34.584128,-117.424189
1687,CA,1688,Adin,41.21751,-120.943193
1688,CA,1689,Agoura Hills,34.157163,-118.75718
1689,CA,1690,Aguanga,33.447306,-116.799693
1690,CA,1691,Ahwahnee,37.407631,-119.723251
1691,CA,1692,Alameda,37.764783,-122.260516
1692,CA,1693,Alamo,37.853695,-122.022868
1693,CA,1694,Albany,37.890045,-122.295394
1694,CA,1695,Albion,39.215934,-123.721366
1695,CA,1696,Alderpoint,40.176389,-123.610556
1696,CA,1697,Alhambra,34.091436,-118.129288
1697,CA,1698,Aliso Viejo,33.572367,-117.708906
1698,CA,1699,Alleghany,39.512698,-120.727176
1699,CA,1700,Alpaugh,35.887778,-119.486389
1700,CA,1701,Alpine,32.828161,-116.754328
1701,CA,1702,Alta,39.228032,-120.773165
1702,CA,1703,Altadena,34.191187,-118.13919
1703,CA,1704,Altaville,38.076944,-120.552222
1704,CA,1705,Alturas,41.476742,-120.545584
1705,CA,1706,Alviso,37.427659,-121.968597
1706,CA,1707,Amador City,38.419444,-120.823056
1707,CA,1708,Amboy,34.599012,-115.774907
1708,CA,1709,American Canyon,38.175,-122.259722
1709,CA,1710,Anaheim,33.842679,-117.954035
1710,CA,1711,Anderson,40.457432,-122.328218
1711,CA,1712,Angels Camp,38.064011,-120.55437
1712,CA,1713,Angelus Oaks,34.153149,-116.948482
1713,CA,1714,Angwin,38.576906,-122.447732
1714,CA,1715,Annapolis,38.714485,-123.314214
1715,CA,1716,Antelope,38.708333,-121.328889
1716,CA,1717,Antioch,37.993917,-121.808906
1717,CA,1718,Anza,33.568812,-116.71355
1718,CA,1719,Apple Valley,34.529081,-117.2132
1719,CA,1720,Applegate,38.995487,-120.990511
1720,CA,1721,Aptos,36.977222,-121.898333
1721,CA,1722,Arbuckle,39.013787,-122.027405
1722,CA,1723,Arcadia,34.132389,-118.026374
1723,CA,1724,Arcata,40.866667,-124.081667
1724,CA,1725,Armona,36.309459,-119.705279
1725,CA,1726,Arnold,38.24175,-120.342231
1726,CA,1727,Aromas,36.878522,-121.639781
1727,CA,1728,Arroyo Grande,35.11449,-120.57289
1728,CA,1729,Artesia,33.866568,-118.068046
1729,CA,1730,Artois,39.619722,-122.192778
1730,CA,1731,Arvin,35.196629,-118.8336
1731,CA,1732,Atascadero,35.475439,-120.663838
1732,CA,1733,Atherton,37.456255,-122.200198
1733,CA,1734,Atwater,37.353154,-120.600837
1734,CA,1735,Atwood,33.865556,-117.83
1735,CA,1736,Auberry,37.072635,-119.457202
1736,CA,1737,Auburn,38.9828,-121.0938
1737,CA,1738,Avalon,33.331963,-118.343706
1738,CA,1739,Avenal,35.987667,-120.122716
1739,CA,1740,Avery,38.204444,-120.368889
1740,CA,1741,Avila Beach,35.18,-120.730833
1741,CA,1742,Azusa,34.12476,-117.903083
1742,CA,1743,Badger,36.631389,-119.012222
1743,CA,1744,Baker,35.360573,-116.063754
1744,CA,1745,Bakersfield,35.386611,-119.017063
1745,CA,1746,Baldwin Park,34.084245,-117.969539
1746,CA,1747,Ballico,37.452455,-120.700152
1747,CA,1748,Bangor,39.424862,-121.350499
1748,CA,1749,Banning,33.92816,-116.889928
1749,CA,1750,Bard,32.789167,-114.555278
1750,CA,1751,Barstow,34.89145,-117.038702
1751,CA,1752,Bass Lake,37.324359,-119.556839
1752,CA,1753,Bayside,40.822381,-124.027305
1753,CA,1754,Beale Afb,39.145833,-121.590278
1754,CA,1755,Beaumont,33.950429,-116.970079
1755,CA,1756,Beckwourth,39.820278,-120.377778
1756,CA,1757,Belden,39.921746,-121.325924
1757,CA,1758,Bell,33.969177,-118.17205
1758,CA,1759,Bell Gardens,33.9775,-118.186111
1759,CA,1760,Bella Vista,40.740945,-122.07245
1760,CA,1761,Bellflower,33.886676,-118.126527
1761,CA,1762,Belmont,37.517433,-122.292671
1762,CA,1763,Belvedere Tiburon,37.889885,-122.472627
1763,CA,1764,Ben Lomond,37.086183,-122.083869
1764,CA,1765,Benicia,38.068459,-122.161392
1765,CA,1766,Benton,37.798099,-118.498526
1766,CA,1767,Berkeley,37.8691,-122.2696
1767,CA,1768,Berry Creek,39.638394,-121.385467
1768,CA,1769,Bethel Island,38.015,-121.639444
1769,CA,1770,Beverly Hills,34.0732,-118.3927
1770,CA,1771,Bieber,41.121389,-121.143056
1771,CA,1772,Big Bar,40.74796,-123.229006
1772,CA,1773,Big Bear City,34.242233,-116.920412
1773,CA,1774,Big Bear Lake,34.243889,-116.910556
1774,CA,1775,Big Bend,41.020833,-121.91
1775,CA,1776,Big Creek,37.205,-119.245
1776,CA,1777,Big Oak Flat,37.823611,-120.257222
1777,CA,1778,Big Pine,37.167857,-118.291597
1778,CA,1779,Big Sur,36.245798,-121.700897
1779,CA,1780,Biggs,39.414918,-121.695873
1780,CA,1781,Biola,36.802222,-120.015278
1781,CA,1782,Birds Landing,38.150402,-121.844318
1782,CA,1783,Bishop,37.386301,-118.44156
1783,CA,1784,Blairsden-graeagle,39.784745,-120.627397
1784,CA,1785,Blocksburg,40.276111,-123.635278
1785,CA,1786,Bloomington,34.066198,-117.399295
1786,CA,1787,Blue Jay,34.246111,-117.208889
1787,CA,1788,Blue Lake,40.928701,-123.896696
1788,CA,1789,Blythe,33.605715,-114.597131
1789,CA,1790,Bodega,38.339264,-122.951364
1790,CA,1791,Bodega Bay,38.330921,-123.037308
1791,CA,1792,Bodfish,35.587046,-118.484656
1792,CA,1793,Bolinas,37.907875,-122.694655
1793,CA,1794,Bonita,32.667143,-117.022065
1794,CA,1795,Bonsall,33.294033,-117.18969
1795,CA,1796,Boonville,39.035007,-123.401954
1796,CA,1797,Boron,35.003748,-117.662921
1797,CA,1798,Borrego Springs,33.238649,-116.351394
1798,CA,1799,Boulder Creek,37.149934,-122.133053
1799,CA,1800,Boulevard,32.671934,-116.319982
1800,CA,1801,Boyes Hot Springs,38.313889,-122.480833
1801,CA,1802,Bradley,35.809255,-120.972793
1802,CA,1803,Brandeis,34.3216,-118.7027
1803,CA,1804,Branscomb,39.700531,-123.554982
1804,CA,1805,Brawley,32.979181,-115.529613
1805,CA,1806,Brea,33.9252,-117.8895
1806,CA,1807,Brentwood,37.932415,-121.689427
1807,CA,1808,Bridgeport,38.256601,-119.208025
1808,CA,1809,Bridgeville,40.468566,-123.549351
1809,CA,1810,Brisbane,37.681104,-122.400118
1810,CA,1811,Brookdale,37.106389,-122.105
1811,CA,1812,Brooks,38.739277,-122.133391
1812,CA,1813,Browns Valley,39.284428,-121.346482
1813,CA,1814,Brownsville,39.452534,-121.261179
1814,CA,1815,Bryn Mawr,34.048333,-117.23
1815,CA,1816,Buellton,34.62093,-120.192233
1816,CA,1817,Buena Park,33.840607,-118.011359
1817,CA,1818,Burbank,34.186238,-118.300898
1818,CA,1819,Burlingame,37.575884,-122.362952
1819,CA,1820,Burney,40.894927,-121.655036
1820,CA,1821,Burnt Ranch,40.772238,-123.461248
1821,CA,1822,Burrel,36.488333,-119.984167
1822,CA,1823,Burson,38.183889,-120.889444
1823,CA,1824,Butte City,39.456348,-121.978046
1824,CA,1825,Buttonwillow,35.403268,-119.465926
1825,CA,1826,Byron,37.902616,-121.602211
1826,CA,1827,Cabazon,33.908583,-116.773948
1827,CA,1828,Calabasas,34.141854,-118.664103
1828,CA,1829,Calexico,32.683227,-115.502815
1829,CA,1830,Caliente,35.356798,-118.410264
1830,CA,1831,California City,35.125833,-117.985
1831,CA,1832,California Hot Springs,35.892422,-118.646317
1832,CA,1833,Calimesa,33.994586,-117.04304
1833,CA,1834,Calipatria,33.166956,-115.511402
1834,CA,1835,Calistoga,38.582305,-122.581384
1835,CA,1836,Callahan,41.383257,-122.764046
1836,CA,1837,Calpella,39.150278,-123.206667
1837,CA,1838,Calpine,39.651699,-120.4442
1838,CA,1839,Camarillo,34.231328,-119.046361
1839,CA,1840,Cambria,35.556568,-121.084029
1840,CA,1841,Camino,38.744938,-120.671979
1841,CA,1842,Camp Meeker,38.425278,-122.958333
1842,CA,1843,Camp Nelson,36.130278,-118.817222
1843,CA,1844,Camp Pendleton,33.327929,-117.409452
1844,CA,1845,Campbell,37.280007,-121.95539
1845,CA,1846,Campo,32.660491,-116.490459
1846,CA,1847,Campo Seco,38.227222,-120.852222
1847,CA,1848,Camptonville,39.450784,-121.023066
1848,CA,1849,Canby,41.466358,-120.921769
1849,CA,1850,Canoga Park,34.199257,-118.59828
1850,CA,1851,Cantil,35.282558,-117.993868
1851,CA,1852,Cantua Creek,36.492123,-120.335252
1852,CA,1853,Canyon,37.831667,-122.186667
1853,CA,1854,Canyon Country,34.426203,-118.449011
1854,CA,1855,Canyon Dam,40.207958,-121.156324
1855,CA,1856,Capay,38.696964,-122.100993
1856,CA,1857,Capistrano Beach,33.459115,-117.662657
1857,CA,1858,Capitola,36.977359,-121.952145
1858,CA,1859,Cardiff By The Sea,33.025265,-117.274371
1859,CA,1860,Carlotta,40.507027,-123.974287
1860,CA,1861,Carlsbad,33.160241,-117.324998
1861,CA,1862,Carmel,36.4478,-121.8395
1862,CA,1863,Carmel By The Sea,36.5546,-121.9203
1863,CA,1864,Carmel Valley,36.478709,-121.724356
1864,CA,1865,Carmichael,38.628393,-121.328683
1865,CA,1866,Carnelian Bay,39.231937,-120.075328
1866,CA,1867,Carpinteria,34.403589,-119.518257
1867,CA,1868,Carson,33.822968,-118.268352
1868,CA,1869,Caruthers,36.535847,-119.844581
1869,CA,1870,Casmalia,34.838056,-120.530278
1870,CA,1871,Caspar,39.365102,-123.798489
1871,CA,1872,Cassel,40.907832,-121.524497
1872,CA,1873,Castaic,34.488889,-118.621944
1873,CA,1874,Castella,41.138611,-122.316667
1874,CA,1875,Castro Valley,37.701527,-122.078183
1875,CA,1876,Castroville,36.77142,-121.747368
1876,CA,1877,Cathedral City,33.809839,-116.466497
1877,CA,1878,Catheys Valley,37.441409,-120.069017
1878,CA,1879,Cayucos,35.444606,-120.890791
1879,CA,1880,Cazadero,38.566335,-123.182896
1880,CA,1881,Cedar Glen,34.253889,-117.163889
1881,CA,1882,Cedar Ridge,39.198889,-121.02
1882,CA,1883,Cedarpines Park,34.25,-117.325
1883,CA,1884,Cedarville,41.475871,-120.151551
1884,CA,1885,Ceres,37.588097,-120.949936
1885,CA,1886,Cerritos,33.858333,-118.063889
1886,CA,1887,Challenge,39.4875,-121.2225
1887,CA,1888,Chatsworth,34.258253,-118.591357
1888,CA,1889,Chester,40.297457,-121.227338
1889,CA,1890,Chicago Park,39.145278,-120.966111
1890,CA,1891,Chico,39.756466,-121.851806
1891,CA,1892,Chilcoot,39.805683,-120.175212
1892,CA,1893,Chinese Camp,37.856829,-120.406673
1893,CA,1894,Chino,34.012222,-117.688056
1894,CA,1895,Chino Hills,33.979735,-117.730791
1895,CA,1896,Chowchilla,37.101371,-120.269077
1896,CA,1897,Chualar,36.595042,-121.431964
1897,CA,1898,Chula Vista,32.64,-117.0833
1898,CA,1899,Cima,35.237778,-115.498333
1899,CA,1900,Citrus Heights,38.694571,-121.269211
1900,CA,1901,City Of Industry,34.0197,-117.9577
1901,CA,1902,Claremont,34.109167,-117.718293
1902,CA,1903,Clarksburg,38.395963,-121.556853
1903,CA,1904,Clayton,37.915442,-121.909967
1904,CA,1905,Clearlake,38.957138,-122.636089
1905,CA,1906,Clearlake Oaks,39.034838,-122.66873
1906,CA,1907,Clearlake Park,38.967778,-122.653889
1907,CA,1908,Clements,38.190833,-121.087222
1908,CA,1909,Clio,39.74326,-120.560458
1909,CA,1910,Clipper Mills,39.532778,-121.156389
1910,CA,1911,Cloverdale,38.799396,-123.011725
1911,CA,1912,Clovis,36.8243,-119.6824
1912,CA,1913,Coachella,33.674965,-116.177231
1913,CA,1914,Coalinga,36.162435,-120.348928
1914,CA,1915,Coarsegold,37.221378,-119.745545
1915,CA,1916,Cobb,38.822222,-122.721944
1916,CA,1917,Coleville,38.502903,-119.482784
1917,CA,1918,Colfax,39.076936,-120.960163
1918,CA,1919,Coloma,38.8,-120.889167
1919,CA,1920,Colton,34.057964,-117.318577
1920,CA,1921,Columbia,38.03975,-120.405552
1921,CA,1922,Colusa,39.21311,-122.011563
1922,CA,1923,Comptche,39.249919,-123.585652
1923,CA,1924,Compton,33.890654,-118.239044
1924,CA,1925,Concord,37.950434,-122.026296
1925,CA,1926,Cool,38.903633,-120.972963
1926,CA,1927,Copperopolis,37.937246,-120.638374
1927,CA,1928,Corcoran,36.086455,-119.560665
1928,CA,1929,Corning,39.929566,-122.195991
1929,CA,1930,Corona,33.8815,-117.6078
1930,CA,1931,Corona Del Mar,33.602066,-117.874331
1931,CA,1932,Coronado,32.68069,-117.169823
1932,CA,1933,Corte Madera,37.922256,-122.513202
1933,CA,1934,Costa Mesa,33.677711,-117.909623
1934,CA,1935,Cotati,38.325918,-122.704831
1935,CA,1936,Cottonwood,40.369072,-122.337463
1936,CA,1937,Coulterville,37.738642,-119.985813
1937,CA,1938,Courtland,38.305756,-121.554297
1938,CA,1939,Covelo,39.801864,-123.215015
1939,CA,1940,Covina,34.097162,-117.906544
1940,CA,1941,Coyote,37.216721,-121.746021
1941,CA,1942,Crescent City,41.785402,-124.178448
1942,CA,1943,Crescent Mills,40.081915,-120.881993
1943,CA,1944,Cressey,37.419722,-120.666389
1944,CA,1945,Crest Park,34.233889,-117.195556
1945,CA,1946,Crestline,34.241944,-117.284722
1946,CA,1947,Creston,35.491543,-120.554238
1947,CA,1948,Crockett,38.051865,-122.217659
1948,CA,1949,Crows Landing,37.438956,-121.019893
1949,CA,1950,Culver City,33.994927,-118.399115
1950,CA,1951,Cupertino,37.317363,-122.038604
1951,CA,1952,Cutler,36.524266,-119.287023
1952,CA,1953,Cutten,40.77,-124.141667
1953,CA,1954,Cypress,33.818613,-118.038696
1954,CA,1955,Daggett,34.86677,-116.887555
1955,CA,1956,Daly City,37.7074,-122.4587
1956,CA,1957,Dana Point,33.476964,-117.700483
1957,CA,1958,Danville,37.820833,-121.906667
1958,CA,1959,Dardanelle,38.341111,-119.832778
1959,CA,1960,Darwin,36.268056,-117.590833
1960,CA,1961,Davenport,37.06306,-122.225735
1961,CA,1962,Davis,38.554817,-121.748495
1962,CA,1963,Davis Creek,41.862555,-120.323549
1963,CA,1964,Death Valley,36.467165,-116.893682
1964,CA,1965,Deer Park,38.575833,-122.448889
1965,CA,1966,Del Mar,32.971474,-117.237314
1966,CA,1967,Del Rey,36.654306,-119.59291
1967,CA,1968,Delano,35.771511,-119.24594
1968,CA,1969,Delhi,37.428629,-120.775489
1969,CA,1970,Denair,37.538419,-120.796474
1970,CA,1971,Descanso,32.872971,-116.602732
1971,CA,1972,Desert Center,33.604941,-115.052603
1972,CA,1973,Desert Hot Springs,33.904973,-116.366222
1973,CA,1974,Diablo,37.83883,-121.960951
1974,CA,1975,Diamond Bar,34.006585,-117.809822
1975,CA,1976,Diamond Springs,38.66302,-120.836071
1976,CA,1977,Dillon Beach,38.250833,-122.964167
1977,CA,1978,Dinuba,36.534931,-119.39087
1978,CA,1979,Discovery Bay,37.9085357,-121.6002291
1979,CA,1980,Dixon,38.458691,-121.815825
1980,CA,1981,Dobbins,39.371469,-121.234386
1981,CA,1982,Dorris,41.9675,-121.916944
1982,CA,1983,Dos Palos,37.00253,-120.633348
1983,CA,1984,Dos Rios,39.709298,-123.298294
1984,CA,1985,Douglas City,40.634151,-122.923867
1985,CA,1986,Douglas Flat,38.087222,-120.471944
1986,CA,1987,Downey,33.94,-118.131667
1987,CA,1988,Downieville,39.570265,-120.677767
1988,CA,1989,Doyle,40.000799,-120.107693
1989,CA,1990,Drytown,38.393056,-120.801389
1990,CA,1991,Duarte,34.139444,-117.976389
1991,CA,1992,Dublin,37.716597,-121.922589
1992,CA,1993,Ducor,35.891667,-119.046389
1993,CA,1994,Dulzura,32.615172,-116.728523
1994,CA,1995,Duncans Mills,38.453889,-123.053889
1995,CA,1996,Dunlap,36.744635,-119.089931
1996,CA,1997,Dunnigan,38.893671,-121.996577
1997,CA,1998,Dunsmuir,41.212439,-122.273397
1998,CA,1999,Durham,39.641599,-121.791983
1999,CA,2000,Dutch Flat,39.197788,-120.826224
2000,CA,2001,Eagleville,41.316389,-120.114722
2001,CA,2002,Earlimart,35.854195,-119.253406
2002,CA,2003,Earp,34.149142,-114.33928
2003,CA,2004,East Irvine,33.675833,-117.758889
2004,CA,2005,Echo Lake,38.810254,-120.070498
2005,CA,2006,Edison,35.3475,-118.870833
2006,CA,2007,Edwards,34.930507,-117.915384
2007,CA,2008,El Cajon,32.777726,-116.919055
2008,CA,2009,El Centro,32.789332,-115.566508
2009,CA,2010,El Cerrito,37.915633,-122.298521
2010,CA,2011,El Dorado,38.682778,-120.846667
2011,CA,2012,El Dorado Hills,38.6851,-121.0685
2012,CA,2013,El Granada,37.502778,-122.468333
2013,CA,2014,El Monte,34.079142,-118.037108
2014,CA,2015,El Nido,37.13452,-120.483235
2015,CA,2016,El Portal,37.674722,-119.783056
2016,CA,2017,El Segundo,33.924275,-118.411924
2017,CA,2018,El Sobrante,37.969287,-122.290092
2018,CA,2019,El Toro,33.625833,-117.692778
2019,CA,2020,El Verano,38.297778,-122.490556
2020,CA,2021,Eldridge,38.348889,-122.509722
2021,CA,2022,Elk,39.160402,-123.723961
2022,CA,2023,Elk Creek,39.598914,-122.557244
2023,CA,2024,Elk Grove,38.412744,-121.359914
2024,CA,2025,Elmira,38.348333,-121.908889
2025,CA,2026,Elverta,38.716424,-121.431038
2026,CA,2027,Emeryville,37.836466,-122.280363
2027,CA,2028,Emigrant Gap,39.286907,-120.662902
2028,CA,2029,Empire,37.638333,-120.901111
2029,CA,2030,Encinitas,33.036944,-117.291111
2030,CA,2031,Encino,34.165479,-118.517542
2031,CA,2032,Escalon,37.804428,-120.990044
2032,CA,2033,Escondido,33.110117,-117.069987
2033,CA,2034,Esparto,38.694191,-122.021391
2034,CA,2035,Essex,34.560626,-115.280344
2035,CA,2036,Etna,41.468303,-122.914189
2036,CA,2037,Eureka,40.776237,-124.155892
2037,CA,2038,Exeter,36.304055,-119.12928
2038,CA,2039,Fair Oaks,38.655408,-121.261065
2039,CA,2040,Fairfax,37.988289,-122.593711
2040,CA,2041,Fairfield,38.267084,-122.03565
2041,CA,2042,Fall River Mills,41.03931,-121.460562
2042,CA,2043,Fallbrook,33.369015,-117.228952
2043,CA,2044,Farmersville,36.300169,-119.205357
2044,CA,2045,Farmington,37.944771,-120.852343
2045,CA,2046,Fawnskin,34.268056,-116.941667
2046,CA,2047,Feather Falls,39.593333,-121.255278
2047,CA,2048,Fellows,35.202579,-119.564757
2048,CA,2049,Felton,37.063124,-122.062162
2049,CA,2050,Ferndale,40.574488,-124.252268
2050,CA,2051,Fiddletown,38.53141,-120.715926
2051,CA,2052,Fields Landing,40.724722,-124.213889
2052,CA,2053,Fillmore,34.402557,-118.904071
2053,CA,2054,Finley,39.004444,-122.874444
2054,CA,2055,Firebaugh,36.8651,-120.470048
2055,CA,2056,Fish Camp,37.51692,-119.642005
2056,CA,2057,Five Points,36.429444,-120.101944
2057,CA,2058,Floriston,39.445746,-120.025421
2058,CA,2059,Flournoy,39.920556,-122.435
2059,CA,2060,Folsom,38.687885,-121.140927
2060,CA,2061,Fontana,34.0589,-117.4383
2061,CA,2062,Foothill Ranch,33.666822,-117.664995
2062,CA,2063,Forbestown,39.541712,-121.213443
2063,CA,2064,Forest Falls,34.08805,-116.914147
2064,CA,2065,Forest Knolls,38.012178,-122.69074
2065,CA,2066,Forest Ranch,40.129931,-121.500205
2066,CA,2067,Foresthill,39.00229,-120.861127
2067,CA,2068,Forestville,38.489442,-122.896683
2068,CA,2069,Forks Of Salmon,41.256978,-123.09781
2069,CA,2070,Fort Bidwell,41.864441,-120.161983
2070,CA,2071,Fort Bragg,39.437452,-123.78835
2071,CA,2072,Fort Dick,41.8382,-124.166
2072,CA,2073,Fort Irwin,35.40148,-116.644759
2073,CA,2074,Fort Jones,41.617027,-122.883207
2074,CA,2075,Fortuna,40.584931,-124.140654
2075,CA,2076,Fountain Valley,33.710762,-117.952318
2076,CA,2077,Fowler,36.628153,-119.671025
2077,CA,2078,Frazier Park,34.822778,-118.943889
2078,CA,2079,Freedom,36.936483,-121.776761
2079,CA,2080,Fremont,37.560493,-121.999935
2080,CA,2081,French Camp,37.877982,-121.282704
2081,CA,2082,French Gulch,40.703517,-122.622868
2082,CA,2083,Fresno,36.841107,-119.800359
2083,CA,2084,Friant,37.002416,-119.696501
2084,CA,2085,Fullerton,33.8796,-117.8951
2085,CA,2086,Fulton,38.494732,-122.77608
2086,CA,2087,Galt,38.269846,-121.29383
2087,CA,2088,Garberville,40.100278,-123.793889
2088,CA,2089,Garden Grove,33.7857,-117.9318
2089,CA,2090,Garden Valley,38.866495,-120.856672
2090,CA,2091,Gardena,33.892463,-118.296122
2091,CA,2092,Gasquet,41.862768,-123.912467
2092,CA,2093,Gazelle,41.510485,-122.537122
2093,CA,2094,Georgetown,38.919892,-120.793388
2094,CA,2095,Gerber,40.042997,-122.164937
2095,CA,2096,Geyserville,38.700398,-122.888921
2096,CA,2097,Gilroy,37.016005,-121.57825
2097,CA,2098,Glen Ellen,38.362538,-122.521002
2098,CA,2099,Glencoe,38.351557,-120.594546
2099,CA,2100,Glendale,34.171606,-118.289892
2100,CA,2101,Glendora,34.128663,-117.855155
2101,CA,2102,Glenhaven,38.99008,-122.522035
2102,CA,2103,Glenn,39.606871,-122.038443
2103,CA,2104,Glennville,35.737677,-118.71693
2104,CA,2105,Gold Run,39.175102,-120.856909
2105,CA,2106,Goleta,34.4901,-120.0384
2106,CA,2107,Gonzales,36.490038,-121.410347
2107,CA,2108,Goodyears Bar,39.572891,-120.820698
2108,CA,2109,Goshen,36.351111,-119.419167
2109,CA,2110,Granada Hills,34.277068,-118.4992
2110,CA,2111,Grand Terrace,34.033889,-117.312778
2111,CA,2112,Granite Bay,38.7438,-121.1898
2112,CA,2113,Grass Valley,39.207617,-121.037401
2113,CA,2114,Graton,38.434971,-122.866766
2114,CA,2115,Green Valley Lake,34.237778,-117.079722
2115,CA,2116,Greenbrae,37.950599,-122.535501
2116,CA,2117,Greenfield,36.320178,-121.24507
2117,CA,2118,Greenview,41.550833,-122.904444
2118,CA,2119,Greenville,40.142404,-120.927299
2119,CA,2120,Greenwood,38.936234,-120.916589
2120,CA,2121,Grenada,41.612512,-122.525829
2121,CA,2122,Gridley,39.358855,-121.689777
2122,CA,2123,Grimes,39.074444,-121.892778
2123,CA,2124,Grizzly Flats,38.628665,-120.542508
2124,CA,2125,Groveland,37.840899,-120.191809
2125,CA,2126,Grover Beach,35.120969,-120.617348
2126,CA,2127,Guadalupe,34.959989,-120.570329
2127,CA,2128,Gualala,38.803619,-123.553975
2128,CA,2129,Guasti,34.065,-117.585556
2129,CA,2130,Guatay,32.848889,-116.556389
2130,CA,2131,Guerneville,38.509573,-122.994416
2131,CA,2132,Guinda,38.816568,-122.189659
2132,CA,2133,Gustine,37.242456,-121.003965
2133,CA,2134,Hacienda Heights,33.997741,-117.965205
2134,CA,2135,Half Moon Bay,37.479057,-122.445929
2135,CA,2136,Hamilton City,39.742778,-122.0125
2136,CA,2137,Hanford,36.331419,-119.649094
2137,CA,2138,Happy Camp,41.801802,-123.388045
2138,CA,2139,Harbor City,33.797006,-118.299114
2139,CA,2140,Harmony,35.508611,-121.021667
2140,CA,2141,Hat Creek,40.767673,-121.463687
2141,CA,2142,Hathaway Pines,38.191944,-120.364444
2142,CA,2143,Hawaiian Gardens,33.82958,-118.072964
2143,CA,2144,Hawthorne,33.913214,-118.346978
2144,CA,2145,Hayfork,40.550431,-123.163416
2145,CA,2146,Hayward,37.6564,-122.0957
2146,CA,2147,Healdsburg,38.61553,-122.856529
2147,CA,2148,Heber,32.698918,-115.428281
2148,CA,2149,Helendale,34.749859,-117.33666
2149,CA,2150,Helm,36.499231,-120.093598
2150,CA,2151,Hemet,33.741613,-116.972974
2151,CA,2152,Herald,38.31282,-121.158898
2152,CA,2153,Hercules,38.006649,-122.263702
2153,CA,2154,Herlong,40.148492,-120.171271
2154,CA,2155,Hermosa Beach,33.864309,-118.395511
2155,CA,2156,Hesperia,34.426389,-117.3
2156,CA,2157,Hickman,37.619989,-120.71722
2157,CA,2158,Hidden Valley Lake,39.962583,-123.814656
2158,CA,2159,Highland,34.126969,-117.208717
2159,CA,2160,Hilmar,37.408377,-120.856144
2160,CA,2161,Hinkley,34.92788,-117.180867
2161,CA,2162,Hollister,36.848404,-121.387101
2162,CA,2163,Holt,37.934444,-121.426111
2163,CA,2164,Holtville,32.810387,-115.377456
2164,CA,2165,Holy City,37.156944,-121.977778
2165,CA,2166,Homeland,33.74528,-117.111845
2166,CA,2167,Homewood,39.078157,-120.179035
2167,CA,2168,Honeydew,40.244444,-124.121667
2168,CA,2169,Hood,38.368333,-121.516389
2169,CA,2170,Hoopa,41.105937,-123.692754
2170,CA,2171,Hopland,38.972056,-123.116956
2171,CA,2172,Hornbrook,41.907738,-122.526528
2172,CA,2173,Hornitos,37.492226,-120.226443
2173,CA,2174,Hughson,37.594364,-120.865281
2174,CA,2175,Hume,36.785,-118.912778
2175,CA,2176,Huntington Beach,33.7152,-118.0088
2176,CA,2177,Huntington Park,33.976879,-118.216053
2177,CA,2178,Huron,36.237144,-120.101964
2178,CA,2179,Hyampom,40.6175,-123.451389
2179,CA,2180,Hydesville,40.549576,-124.084489
2180,CA,2181,Idyllwild,33.730433,-116.710665
2181,CA,2182,Igo,40.431795,-122.654023
2182,CA,2183,Imperial,32.846954,-115.572984
2183,CA,2184,Imperial Beach,32.578289,-117.11478
2184,CA,2185,Independence,36.839578,-118.204808
2185,CA,2186,Indian Wells,33.716334,-116.338129
2186,CA,2187,Indio,33.721899,-116.235729
2187,CA,2188,Inglewood,33.955048,-118.355575
2188,CA,2189,Inverness,38.083514,-122.856774
2189,CA,2190,Inyokern,35.674498,-117.834844
2190,CA,2191,Ione,38.351882,-120.943265
2191,CA,2192,Irvine,33.7357,-117.7672
2192,CA,2193,Isleton,38.155392,-121.604858
2193,CA,2194,Ivanhoe,36.385622,-119.218884
2194,CA,2195,Jackson,38.357514,-120.754877
2195,CA,2196,Jacumba,32.624934,-116.195184
2196,CA,2197,Jamestown,37.906544,-120.494567
2197,CA,2198,Jamul,32.716289,-116.832332
2198,CA,2199,Janesville,40.296325,-120.50982
2199,CA,2200,Jenner,38.474093,-123.135379
2200,CA,2201,Johannesburg,35.370655,-117.637325
2201,CA,2202,Jolon,35.970833,-121.175
2202,CA,2203,Joshua Tree,34.150163,-116.303763
2203,CA,2204,Julian,33.053355,-116.565812
2204,CA,2205,Junction City,40.768187,-123.062671
2205,CA,2206,June Lake,37.777324,-119.082492
2206,CA,2207,Kaweah,36.469722,-118.9175
2207,CA,2208,Keeler,36.487222,-117.873056
2208,CA,2209,Keene,35.237502,-118.607563
2209,CA,2210,Kelseyville,38.946164,-122.781707
2210,CA,2211,Kentfield,37.952222,-122.556111
2211,CA,2212,Kenwood,38.416794,-122.554679
2212,CA,2213,Kerman,36.730576,-120.072444
2213,CA,2214,Kernville,35.755005,-118.404723
2214,CA,2215,Kettleman City,36.021501,-119.964361
2215,CA,2216,Keyes,37.556667,-120.914444
2216,CA,2217,King City,36.202776,-121.127329
2217,CA,2218,Kings Beach,39.240119,-120.023287
2218,CA,2219,Kings Canyon National Pk,36.780601,-119.068201
2219,CA,2220,Kingsburg,36.508047,-119.543298
2220,CA,2221,Kirkwood,38.702778,-120.071667
2221,CA,2222,Kit Carson,38.431944,-120.570833
2222,CA,2223,Klamath,41.542075,-124.033907
2223,CA,2224,Klamath River,41.863699,-122.819693
2224,CA,2225,Kneeland,40.71262,-123.946421
2225,CA,2226,Knights Landing,38.822032,-121.720003
2226,CA,2227,Knightsen,37.9818,-121.672149
2227,CA,2228,Korbel,40.824369,-123.859413
2228,CA,2229,Kyburz,38.780036,-120.25529
2229,CA,2230,La Canada Flintridge,34.209282,-118.199008
2230,CA,2231,La Crescenta,34.231619,-118.245687
2231,CA,2232,La Grange,37.678915,-120.358131
2232,CA,2233,La Habra,33.932173,-117.949703
2233,CA,2234,La Honda,37.272285,-122.293889
2234,CA,2235,La Jolla,32.845488,-117.25208
2235,CA,2236,La Mesa,32.760431,-117.011541
2236,CA,2237,La Mirada,33.8953,-118.0024
2237,CA,2238,La Palma,33.849017,-118.040618
2238,CA,2239,La Puente,34.029428,-117.934098
2239,CA,2240,La Quinta,34.3278,-118.6406
2240,CA,2241,La Verne,34.115905,-117.77077
2241,CA,2242,Ladera Ranch,33.5554,-117.6384
2242,CA,2243,Lafayette,37.896105,-122.11194
2243,CA,2244,Laguna Beach,33.542927,-117.772351
2244,CA,2245,Laguna Hills,33.60028,-117.70854
2245,CA,2246,Laguna Niguel,33.5225,-117.706667
2246,CA,2247,Laguna Woods,33.6087,-117.7311
2247,CA,2248,Lagunitas,38.013929,-122.701576
2248,CA,2249,Lake Arrowhead,34.248333,-117.188333
2249,CA,2250,Lake City,41.668208,-120.181424
2250,CA,2251,Lake Elsinore,33.659816,-117.348535
2251,CA,2252,Lake Forest,33.640015,-117.68819
2252,CA,2253,Lake Hughes,34.668297,-118.444719
2253,CA,2254,Lake Isabella,35.617889,-118.441256
2254,CA,2255,Lakehead,40.958775,-122.359281
2255,CA,2256,Lakeport,39.055147,-122.915082
2256,CA,2257,Lakeshore,37.253,-119.1738
2257,CA,2258,Lakeside,32.856181,-116.920089
2258,CA,2259,Lakewood,33.8517,-118.1328
2259,CA,2260,Lamont,35.257059,-118.912419
2260,CA,2261,Lancaster,34.690888,-118.149129
2261,CA,2262,Landers,34.403056,-116.591667
2262,CA,2263,Larkspur,37.936743,-122.536202
2263,CA,2264,Lathrop,37.820897,-121.282652
2264,CA,2265,Laton,36.437834,-119.715565
2265,CA,2266,Lawndale,33.887908,-118.351014
2266,CA,2267,Laytonville,39.667811,-123.486862
2267,CA,2268,Le Grand,37.234175,-120.251737
2268,CA,2269,Lebec,34.828862,-118.879126
2269,CA,2270,Lee Vining,37.988988,-119.123413
2270,CA,2271,Leggett,39.865833,-123.713056
2271,CA,2272,Lemon Cove,36.396084,-119.004986
2272,CA,2273,Lemon Grove,32.73323,-117.032646
2273,CA,2274,Lemoore,36.309535,-119.831017
2274,CA,2275,Lewiston,40.745986,-122.842591
2275,CA,2276,Likely,41.230556,-120.503056
2276,CA,2277,Lincoln,38.904035,-121.295541
2277,CA,2278,Lincoln Acres,32.667778,-117.071944
2278,CA,2279,Linden,38.021869,-121.074442
2279,CA,2280,Lindsay,36.209551,-119.088427
2280,CA,2281,Litchfield,40.362788,-120.253975
2281,CA,2282,Little Lake,35.936667,-117.905833
2282,CA,2283,Little River,39.271042,-123.753089
2283,CA,2284,Littlerock,34.547372,-117.957405
2284,CA,2285,Live Oak,39.266904,-121.66393
2285,CA,2286,Livermore,37.68299,-121.762983
2286,CA,2287,Livingston,37.376168,-120.716156
2287,CA,2288,Llano,34.495914,-117.798841
2288,CA,2289,Lockeford,38.162436,-121.135611
2289,CA,2290,Lockwood,35.989287,-121.205946
2290,CA,2291,Lodi,38.123579,-121.263034
2291,CA,2292,Loleta,40.6531,-124.228826
2292,CA,2293,Loma Linda,34.0524,-117.2618
2293,CA,2294,Loma Mar,37.254437,-122.281996
2294,CA,2295,Lomita,33.793339,-118.31693
2295,CA,2296,Lompoc,34.658349,-120.450605
2296,CA,2297,Lone Pine,36.579781,-118.057824
2297,CA,2298,Long Barn,38.20336,-120.001159
2298,CA,2299,Long Beach,33.7705,-118.1885
2299,CA,2300,Lookout,41.208056,-121.154167
2300,CA,2301,Loomis,38.80711,-121.169826
2301,CA,2302,Los Alamitos,33.795291,-118.069891
2302,CA,2303,Los Alamos,34.744444,-120.277222
2303,CA,2304,Los Altos,37.381432,-122.125754
2304,CA,2305,Los Angeles,33.973093,-118.247896
2305,CA,2306,Los Banos,37.06266,-120.854387
2306,CA,2307,Los Gatos,37.211677,-121.978684
2307,CA,2308,Los Gatos,37.1536,-121.9812
2308,CA,2309,Los Molinos,40.049735,-122.099175
2309,CA,2310,Los Olivos,34.667778,-120.113889
2310,CA,2311,Los Osos,35.317203,-120.833261
2311,CA,2312,Lost Hills,35.613111,-119.721573
2312,CA,2313,Lotus,38.801712,-120.928864
2313,CA,2314,Lower Lake,38.860682,-122.575426
2314,CA,2315,Loyalton,39.662974,-120.229662
2315,CA,2316,Lucerne,39.083393,-122.785125
2316,CA,2317,Lucerne Valley,34.44695,-116.918857
2317,CA,2318,Ludlow,34.901779,-116.386202
2318,CA,2319,Lynwood,33.924076,-118.201289
2319,CA,2320,Lytle Creek,34.255755,-117.518613
2320,CA,2321,Macdoel,41.883028,-121.944472
2321,CA,2322,Mad River,40.352352,-123.413994
2322,CA,2323,Madeline,41.051111,-120.474444
2323,CA,2324,Madera,36.9528,-119.8806
2324,CA,2325,Madison,38.680164,-121.972129
2325,CA,2326,Magalia,39.831728,-121.597455
2326,CA,2327,Malibu,34.0382,-118.7082
2327,CA,2328,Mammoth Lakes,37.642361,-118.976383
2328,CA,2329,Manchester,38.992088,-123.670962
2329,CA,2330,Manhattan Beach,33.889594,-118.399562
2330,CA,2331,Manteca,37.80875,-121.21856
2331,CA,2332,Manton,40.433125,-121.836521
2332,CA,2333,March Air Reserve Base,33.895556,-117.276111
2333,CA,2334,Maricopa,35.038353,-119.407661
2334,CA,2335,Marina,36.684922,-121.793383
2335,CA,2336,Marina Del Rey,33.977876,-118.452475
2336,CA,2337,Mariposa,37.503918,-119.892496
2337,CA,2338,Markleeville,38.76473,-119.807275
2338,CA,2339,Marshall,38.176221,-122.890011
2339,CA,2340,Martell,38.366944,-120.795
2340,CA,2341,Martinez,37.993246,-122.111693
2341,CA,2342,Marysville,39.141653,-121.522467
2342,CA,2343,Mather,38.549224,-121.282394
2343,CA,2344,Maxwell,39.292494,-122.195161
2344,CA,2345,Maywood,33.988992,-118.187685
2345,CA,2346,Mc Farland,35.675779,-119.227156
2346,CA,2347,Mc Kittrick,35.303097,-119.636627
2347,CA,2348,Mcarthur,41.111407,-121.214896
2348,CA,2349,Mcclellan,38.655416,-121.40311
2349,CA,2350,Mccloud,41.252108,-122.13562
2350,CA,2351,Mckinleyville,40.875833,-124.083056
